{"type":"FeatureCollection","features": [
	{"type":"Feature","geometry":{"type": "Point", "coordinates": [145.39781307944443, 43.82833858694445]},"tippecanoe":{"layer":"water_name","minzoom":0,"maxzoom":9},"properties":{"class":"ocean","name":"ハッチャス崎"}},
	{"type":"Feature","geometry":{"type": "Point", "coordinates": [145.402389, 43.826486583333335]},"tippecanoe":{"layer":"place","minzoom":7,"maxzoom":9},"properties":{"class":"city","name":"ポンコタン"}},
	{"type":"Feature","geometry":{"type": "Point", "coordinates": [145.402389, 43.83641408333333]},"tippecanoe":{"layer":"place","minzoom":7,"maxzoom":9},"properties":{"class":"city","name":"ハッチャス"}},
	{"type":"Feature","geometry":{"type": "Point", "coordinates": [145.4401843327778, 43.7166979075]},"tippecanoe":{"layer":"water_name","minzoom":0,"maxzoom":9},"properties":{"class":"ocean","name":"ノツエト崎"}},
	{"type":"Feature","geometry":{"type": "Point", "coordinates": [145.4474895, 43.72619897222222]},"tippecanoe":{"layer":"place","minzoom":7,"maxzoom":9},"properties":{"class":"city","name":"善平古丹"}},
	{"type":"Feature","geometry":{"type": "Point", "coordinates": [145.42481527777778, 43.78803558333333]},"tippecanoe":{"layer":"place","minzoom":7,"maxzoom":9},"properties":{"class":"city","name":"米戸賀"}},
	{"type":"Feature","geometry":{"type": "Point", "coordinates": [145.42852783333333, 43.77044161111111]},"tippecanoe":{"layer":"place","minzoom":7,"maxzoom":9},"properties":{"class":"city","name":"オンネルス"}},
	{"type":"Feature","geometry":{"type": "Point", "coordinates": [145.41909169444443, 43.80690330555556]},"tippecanoe":{"layer":"place","minzoom":7,"maxzoom":9},"properties":{"class":"city","name":"クシナイ"}},
	{"type":"Feature","geometry":{"type": "Point", "coordinates": [145.43579598, 43.83337969611111]},"tippecanoe":{"layer":"water_name","minzoom":2,"maxzoom":9},"properties":{"class":"other","name":"ソウスベツ川"}},
	{"type":"Feature","geometry":{"type": "Point", "coordinates": [145.43418430555556, 43.84782969444444]},"tippecanoe":{"layer":"place","minzoom":7,"maxzoom":9},"properties":{"class":"city","name":"シャリカリベツ"}},
	{"type":"Feature","geometry":{"type": "Point", "coordinates": [145.47141259083332, 43.70198065305556]},"tippecanoe":{"layer":"water_name","minzoom":0,"maxzoom":9},"properties":{"class":"ocean","name":"泊"}},
	{"type":"Feature","geometry":{"type": "Point", "coordinates": [145.4961838775, 43.70198065305556]},"tippecanoe":{"layer":"water_name","minzoom":0,"maxzoom":9},"properties":{"class":"ocean","name":"湾"}},
	{"type":"Feature","geometry":{"type": "Point", "coordinates": [145.470154, 43.729551694444446]},"tippecanoe":{"layer":"place","minzoom":7,"maxzoom":9},"properties":{"class":"city","name":"ポンタルベツ"}},
	{"type":"Feature","geometry":{"type": "Point", "coordinates": [145.4895209722222, 43.733552833333334]},"tippecanoe":{"layer":"place","minzoom":7,"maxzoom":9},"properties":{"class":"city","name":"エカンコタン"}},
	{"type":"Feature","geometry":{"type": "Point", "coordinates": [145.47037849333333, 43.78860770888889]},"tippecanoe":{"layer":"water_name","minzoom":2,"maxzoom":9},"properties":{"class":"other","name":"ポンタルベツ川"}},
	{"type":"Feature","geometry":{"type": "Point", "coordinates": [145.46216683027777, 43.803762399166665]},"tippecanoe":{"layer":"water_name","minzoom":2,"maxzoom":9},"properties":{"class":"other","name":"サルカマップ川"}},
	{"type":"Feature","geometry":{"type": "Point", "coordinates": [145.49845089416667, 43.87273228666667]},"tippecanoe":{"layer":"water_name","minzoom":2,"maxzoom":9},"properties":{"class":"other","name":"一菱内湖"}},
	{"type":"Feature","geometry":{"type": "Point", "coordinates": [145.4841231775, 43.87671422722222]},"tippecanoe":{"layer":"water_name","minzoom":2,"maxzoom":9},"properties":{"class":"other","name":"一菱内川"}},
	{"type":"Feature","geometry":{"type": "Point", "coordinates": [145.54042271444445, 43.65195593333333]},"tippecanoe":{"layer":"water_name","minzoom":0,"maxzoom":9},"properties":{"class":"ocean","name":"ケラムイ崎"}},
	{"type":"Feature","geometry":{"type": "Point", "coordinates": [145.53146569444445, 43.73569511111111]},"tippecanoe":{"layer":"place","minzoom":7,"maxzoom":9},"properties":{"class":"city","name":"ウエンナイ"}},
	{"type":"Feature","geometry":{"type": "Point", "coordinates": [145.5238950502778, 43.77258271416667]},"tippecanoe":{"layer":"water_name","minzoom":2,"maxzoom":9},"properties":{"class":"other","name":"塘ノ川"}},
	{"type":"Feature","geometry":{"type": "Point", "coordinates": [145.50134844444443, 43.85961705555555]},"tippecanoe":{"layer":"place","minzoom":7,"maxzoom":9},"properties":{"class":"city","name":"ポントウ"}},
	{"type":"Feature","geometry":{"type": "Point", "coordinates": [145.50423354, 43.8448793525]},"tippecanoe":{"layer":"place","minzoom":3,"maxzoom":9},"properties":{"class":"town","name":"泊山"}},
	{"type":"Feature","geometry":{"type": "Point", "coordinates": [145.51690294444444, 43.9132725]},"tippecanoe":{"layer":"place","minzoom":7,"maxzoom":9},"properties":{"class":"city","name":"オームイ"}},
	{"type":"Feature","geometry":{"type": "Point", "coordinates": [145.50836681027778, 43.89629666388889]},"tippecanoe":{"layer":"place","minzoom":3,"maxzoom":9},"properties":{"class":"village","name":"国"}},
	{"type":"Feature","geometry":{"type": "Point", "coordinates": [145.53404019444446, 43.91886230555556]},"tippecanoe":{"layer":"place","minzoom":7,"maxzoom":9},"properties":{"class":"city","name":"古丹消"}},
	{"type":"Feature","geometry":{"type": "Point", "coordinates": [145.5445904722222, 43.703092444444444]},"tippecanoe":{"layer":"place","minzoom":7,"maxzoom":9},"properties":{"class":"city","name":"ケラムイ"}},
	{"type":"Feature","geometry":{"type": "Point", "coordinates": [145.55313666666666, 43.724120916666664]},"tippecanoe":{"layer":"water_name","minzoom":2,"maxzoom":9},"properties":{"class":"other","name":"ケ"}},
	{"type":"Feature","geometry":{"type": "Point", "coordinates": [145.56301680555555, 43.74582844444444]},"tippecanoe":{"layer":"place","minzoom":7,"maxzoom":9},"properties":{"class":"city","name":"シロマンベツ"}},
	{"type":"Feature","geometry":{"type": "Point", "coordinates": [145.55050178305555, 43.721294424166665]},"tippecanoe":{"layer":"water_name","minzoom":2,"maxzoom":9},"properties":{"class":"other","name":"ラ"}},
	{"type":"Feature","geometry":{"type": "Point", "coordinates": [145.5490760275, 43.71845284972222]},"tippecanoe":{"layer":"water_name","minzoom":2,"maxzoom":9},"properties":{"class":"other","name":"ム"}},
	{"type":"Feature","geometry":{"type": "Point", "coordinates": [145.548563935, 43.714961425]},"tippecanoe":{"layer":"water_name","minzoom":2,"maxzoom":9},"properties":{"class":"other","name":"イ"}},
	{"type":"Feature","geometry":{"type": "Point", "coordinates": [145.5497847888889, 43.711191587777776]},"tippecanoe":{"layer":"water_name","minzoom":2,"maxzoom":9},"properties":{"class":"other","name":"湖"}},
	{"type":"Feature","geometry":{"type": "Point", "coordinates": [145.542316605, 43.80842242722222]},"tippecanoe":{"layer":"water_name","minzoom":2,"maxzoom":9},"properties":{"class":"other","name":"シロマンベツ川"}},
	{"type":"Feature","geometry":{"type": "Point", "coordinates": [145.5571899302778, 43.88630563527778]},"tippecanoe":{"layer":"place","minzoom":3,"maxzoom":9},"properties":{"class":"town","name":"泊村"}},
	{"type":"Feature","geometry":{"type": "Point", "coordinates": [145.5454997775, 43.89629666388889]},"tippecanoe":{"layer":"place","minzoom":3,"maxzoom":9},"properties":{"class":"village","name":"後"}},
	{"type":"Feature","geometry":{"type": "Point", "coordinates": [145.5827067075, 43.896252089444445]},"tippecanoe":{"layer":"place","minzoom":3,"maxzoom":9},"properties":{"class":"village","name":"島"}},
	{"type":"Feature","geometry":{"type": "Point", "coordinates": [145.54756519444445, 43.93066980555555]},"tippecanoe":{"layer":"place","minzoom":7,"maxzoom":9},"properties":{"class":"city","name":"ウエンシリ"}},
	{"type":"Feature","geometry":{"type": "Point", "coordinates": [145.56088446027778, 43.94449258888889]},"tippecanoe":{"layer":"place","minzoom":3,"maxzoom":9},"properties":{"class":"village","name":"二本岩"}},
	{"type":"Feature","geometry":{"type": "Point", "coordinates": [145.60257167583333, 43.86779530638889]},"tippecanoe":{"layer":"water_name","minzoom":0,"maxzoom":9},"properties":{"class":"ocean","name":"オリコノモイ崎"}},
	{"type":"Feature","geometry":{"type": "Point", "coordinates": [145.6108908611111, 43.8831955]},"tippecanoe":{"layer":"place","minzoom":7,"maxzoom":9},"properties":{"class":"city","name":"セイカラホール"}},
	{"type":"Feature","geometry":{"type": "Point", "coordinates": [145.62312783333334, 43.88907113888889]},"tippecanoe":{"layer":"place","minzoom":7,"maxzoom":9},"properties":{"class":"city","name":"ウラロクシベツ"}},
	{"type":"Feature","geometry":{"type": "Point", "coordinates": [145.59382455555556, 43.956169861111114]},"tippecanoe":{"layer":"place","minzoom":7,"maxzoom":9},"properties":{"class":"city","name":"小田富"}},
	{"type":"Feature","geometry":{"type": "Point", "coordinates": [145.60357595555556, 43.93399240694445]},"tippecanoe":{"layer":"water_name","minzoom":2,"maxzoom":9},"properties":{"class":"other","name":"福洲崎"}},
	{"type":"Feature","geometry":{"type": "Point", "coordinates": [145.61149933333334, 43.93235558333333]},"tippecanoe":{"layer":"water_name","minzoom":2,"maxzoom":9},"properties":{"class":"other","name":"東沸湖"}},
	{"type":"Feature","geometry":{"type": "Point", "coordinates": [145.61470722222222, 43.97505341666667]},"tippecanoe":{"layer":"place","minzoom":7,"maxzoom":9},"properties":{"class":"city","name":"コンブモイ"}},
	{"type":"Feature","geometry":{"type": "Point", "coordinates": [145.64340980444445, 43.91620545666667]},"tippecanoe":{"layer":"water_name","minzoom":2,"maxzoom":9},"properties":{"class":"other","name":"沸"}},
	{"type":"Feature","geometry":{"type": "Point", "coordinates": [145.64001339305557, 43.906217399166664]},"tippecanoe":{"layer":"place","minzoom":7,"maxzoom":9},"properties":{"class":"city","name":"東沸"}},
	{"type":"Feature","geometry":{"type": "Point", "coordinates": [145.66166636111112, 43.911059361111114]},"tippecanoe":{"layer":"place","minzoom":7,"maxzoom":9},"properties":{"class":"city","name":"ボッケ"}},
	{"type":"Feature","geometry":{"type": "Point", "coordinates": [145.64591719833334, 43.9125507325]},"tippecanoe":{"layer":"water_name","minzoom":2,"maxzoom":9},"properties":{"class":"other","name":"川"}},
	{"type":"Feature","geometry":{"type": "Point", "coordinates": [145.63888827416667, 43.91873107916667]},"tippecanoe":{"layer":"water_name","minzoom":2,"maxzoom":9},"properties":{"class":"other","name":"東"}},
	{"type":"Feature","geometry":{"type": "Point", "coordinates": [145.62661013888888, 43.984245944444446]},"tippecanoe":{"layer":"place","minzoom":7,"maxzoom":9},"properties":{"class":"city","name":"アシリコタン"}},
	{"type":"Feature","geometry":{"type": "Point", "coordinates": [145.64497480555556, 43.98905161111111]},"tippecanoe":{"layer":"place","minzoom":7,"maxzoom":9},"properties":{"class":"city","name":"秩苅別"}},
	{"type":"Feature","geometry":{"type": "Point", "coordinates": [145.67409801305556, 43.9049930625]},"tippecanoe":{"layer":"water_name","minzoom":0,"maxzoom":9},"properties":{"class":"ocean","name":"ボッケ崎"}},
	{"type":"Feature","geometry":{"type": "Point", "coordinates": [145.6884965, 43.910765]},"tippecanoe":{"layer":"place","minzoom":7,"maxzoom":9},"properties":{"class":"city","name":"オショウス"}},
	{"type":"Feature","geometry":{"type": "Point", "coordinates": [145.71197408333333, 43.91323119444444]},"tippecanoe":{"layer":"place","minzoom":7,"maxzoom":9},"properties":{"class":"city","name":"キナシリ"}},
	{"type":"Feature","geometry":{"type": "Point", "coordinates": [145.73557458333335, 43.92139544444444]},"tippecanoe":{"layer":"place","minzoom":7,"maxzoom":9},"properties":{"class":"city","name":"作万別"}},
	{"type":"Feature","geometry":{"type": "Point", "coordinates": [145.73020247222223, 43.96445333333333]},"tippecanoe":{"layer":"place","minzoom":3,"maxzoom":9},"properties":{"class":"town","name":"小羅臼山"}},
	{"type":"Feature","geometry":{"type": "Point", "coordinates": [145.7332803888889, 43.97973252777778]},"tippecanoe":{"layer":"place","minzoom":3,"maxzoom":9},"properties":{"class":"town","name":"羅臼山"}},
	{"type":"Feature","geometry":{"type": "Point", "coordinates": [145.75483847222222, 43.92814113888889]},"tippecanoe":{"layer":"place","minzoom":7,"maxzoom":9},"properties":{"class":"city","name":"ムニカラシベツ"}},
	{"type":"Feature","geometry":{"type": "Point", "coordinates": [145.7794805, 43.94275647222222]},"tippecanoe":{"layer":"place","minzoom":7,"maxzoom":9},"properties":{"class":"city","name":"中ノ古丹"}},
	{"type":"Feature","geometry":{"type": "Point", "coordinates": [145.78180013416667, 43.93322038583333]},"tippecanoe":{"layer":"water_name","minzoom":0,"maxzoom":9},"properties":{"class":"ocean","name":"羅臼崎"}},
	{"type":"Feature","geometry":{"type": "Point", "coordinates": [145.78524380555555, 43.95269663888889]},"tippecanoe":{"layer":"place","minzoom":7,"maxzoom":9},"properties":{"class":"city","name":"ウエンチカップ"}},
	{"type":"Feature","geometry":{"type": "Point", "coordinates": [145.78470844444445, 43.96613961111111]},"tippecanoe":{"layer":"place","minzoom":7,"maxzoom":9},"properties":{"class":"city","name":"トッカリムイ"}},
	{"type":"Feature","geometry":{"type": "Point", "coordinates": [145.7907337747222, 43.95945909583333]},"tippecanoe":{"layer":"water_name","minzoom":0,"maxzoom":9},"properties":{"class":"ocean","name":"トッカリムイ崎"}},
	{"type":"Feature","geometry":{"type": "Point", "coordinates": [145.79933955555555, 43.99542286111111]},"tippecanoe":{"layer":"place","minzoom":7,"maxzoom":9},"properties":{"class":"city","name":"瀬石"}},
	{"type":"Feature","geometry":{"type": "Point", "coordinates": [145.8600702377778, 43.39610576861111]},"tippecanoe":{"layer":"place","minzoom":3,"maxzoom":9},"properties":{"class":"village","name":"貝殻島"}},
	{"type":"Feature","geometry":{"type": "Point", "coordinates": [145.86155374583333, 43.455667579722224]},"tippecanoe":{"layer":"water_name","minzoom":0,"maxzoom":9},"properties":{"class":"ocean","name":"帆前岬"}},
	{"type":"Feature","geometry":{"type": "Point", "coordinates": [145.89430762277777, 43.38369813083333]},"tippecanoe":{"layer":"place","minzoom":3,"maxzoom":9},"properties":{"class":"village","name":"萠茂尻島"}},
	{"type":"Feature","geometry":{"type": "Point", "coordinates": [145.90855471583333, 43.41589623416667]},"tippecanoe":{"layer":"place","minzoom":3,"maxzoom":9},"properties":{"class":"village","name":"糞岩"}},
	{"type":"Feature","geometry":{"type": "Point", "coordinates": [145.87566211944446, 43.39010923222222]},"tippecanoe":{"layer":"place","minzoom":3,"maxzoom":9},"properties":{"class":"village","name":"オドケ島"}},
	{"type":"Feature","geometry":{"type": "Point", "coordinates": [145.88642738972223, 43.42571640083333]},"tippecanoe":{"layer":"place","minzoom":3,"maxzoom":9},"properties":{"class":"village","name":"ゴメ島"}},
	{"type":"Feature","geometry":{"type": "Point", "coordinates": [145.89363186027776, 43.450036483333335]},"tippecanoe":{"layer":"place","minzoom":7,"maxzoom":9},"properties":{"class":"city","name":"モシリケシ"}},
	{"type":"Feature","geometry":{"type": "Point", "coordinates": [145.89996983333333, 43.427102805555556]},"tippecanoe":{"layer":"place","minzoom":7,"maxzoom":9},"properties":{"class":"city","name":"税庫前"}},
	{"type":"Feature","geometry":{"type": "Point", "coordinates": [145.88961611861112, 43.462199061111114]},"tippecanoe":{"layer":"water_name","minzoom":0,"maxzoom":9},"properties":{"class":"ocean","name":"台場岬"}},
	{"type":"Feature","geometry":{"type": "Point", "coordinates": [145.92937067277776, 43.40212146694444]},"tippecanoe":{"layer":"place","minzoom":3,"maxzoom":9},"properties":{"class":"village","name":"歯"}},
	{"type":"Feature","geometry":{"type": "Point", "coordinates": [145.94741750972221, 43.40220170916667]},"tippecanoe":{"layer":"place","minzoom":3,"maxzoom":9},"properties":{"class":"village","name":"舞"}},
	{"type":"Feature","geometry":{"type": "Point", "coordinates": [145.93523722277777, 43.44380674166667]},"tippecanoe":{"layer":"place","minzoom":7,"maxzoom":9},"properties":{"class":"city","name":"アキアジ場"}},
	{"type":"Feature","geometry":{"type": "Point", "coordinates": [145.9485583125, 43.453337788055556]},"tippecanoe":{"layer":"water_name","minzoom":0,"maxzoom":9},"properties":{"class":"ocean","name":"トッカリ岬"}},
	{"type":"Feature","geometry":{"type": "Point", "coordinates": [145.95445066666667, 43.424697305555554]},"tippecanoe":{"layer":"water_name","minzoom":0,"maxzoom":9},"properties":{"class":"ocean","name":"三角岬"}},
	{"type":"Feature","geometry":{"type": "Point", "coordinates": [145.91765203444444, 43.433428489444445]},"tippecanoe":{"layer":"place","minzoom":3,"maxzoom":9},"properties":{"class":"village","name":"水晶島"}},
	{"type":"Feature","geometry":{"type": "Point", "coordinates": [145.92085930222223, 43.44536494416667]},"tippecanoe":{"layer":"place","minzoom":7,"maxzoom":9},"properties":{"class":"city","name":"トッカリモシリ"}},
	{"type":"Feature","geometry":{"type": "Point", "coordinates": [145.91744837638888, 43.430259167222225]},"tippecanoe":{"layer":"place","minzoom":7,"maxzoom":9},"properties":{"class":"city","name":"中ノ浜"}},
	{"type":"Feature","geometry":{"type": "Point", "coordinates": [145.98598078444445, 43.36882499]},"tippecanoe":{"layer":"place","minzoom":3,"maxzoom":9},"properties":{"class":"village","name":"秋勇留島"}},
	{"type":"Feature","geometry":{"type": "Point", "coordinates": [145.964638875, 43.40224183083333]},"tippecanoe":{"layer":"place","minzoom":3,"maxzoom":9},"properties":{"class":"village","name":"群"}},
	{"type":"Feature","geometry":{"type": "Point", "coordinates": [145.98257572083332, 43.4020813475]},"tippecanoe":{"layer":"place","minzoom":3,"maxzoom":9},"properties":{"class":"village","name":"島"}},
	{"type":"Feature","geometry":{"type": "Point", "coordinates": [147.01116452777777, 44.49751288888889]},"tippecanoe":{"layer":"place","minzoom":7,"maxzoom":9},"properties":{"class":"city","name":"リヤウシ"}},
	{"type":"Feature","geometry":{"type": "Point", "coordinates": [147.0155843311111, 44.62212572777778]},"tippecanoe":{"layer":"water_name","minzoom":0,"maxzoom":9},"properties":{"class":"ocean","name":"萌消湾"}},
	{"type":"Feature","geometry":{"type": "Point", "coordinates": [147.0034100861111, 44.65321308888889]},"tippecanoe":{"layer":"water_name","minzoom":0,"maxzoom":9},"properties":{"class":"ocean","name":"萌消崎"}},
	{"type":"Feature","geometry":{"type": "Point", "coordinates": [147.0593975388889, 44.54003166333333]},"tippecanoe":{"layer":"water_name","minzoom":0,"maxzoom":9},"properties":{"class":"ocean","name":"ビヨーノツ崎"}},
	{"type":"Feature","geometry":{"type": "Point", "coordinates": [147.06273397916667, 44.60011047305556]},"tippecanoe":{"layer":"place","minzoom":3,"maxzoom":9},"properties":{"class":"village","name":"択"}},
	{"type":"Feature","geometry":{"type": "Point", "coordinates": [147.0513963888889, 44.65195797222222]},"tippecanoe":{"layer":"place","minzoom":7,"maxzoom":9},"properties":{"class":"city","name":"ヤラカラウシ"}},
	{"type":"Feature","geometry":{"type": "Point", "coordinates": [147.10658275, 44.56945594444444]},"tippecanoe":{"layer":"place","minzoom":7,"maxzoom":9},"properties":{"class":"city","name":"六甲"}},
	{"type":"Feature","geometry":{"type": "Point", "coordinates": [147.08769520194446, 44.60024765833333]},"tippecanoe":{"layer":"place","minzoom":3,"maxzoom":9},"properties":{"class":"village","name":"捉"}},
	{"type":"Feature","geometry":{"type": "Point", "coordinates": [147.1130404436111, 44.60024765833333]},"tippecanoe":{"layer":"place","minzoom":3,"maxzoom":9},"properties":{"class":"village","name":"島"}},
	{"type":"Feature","geometry":{"type": "Point", "coordinates": [147.09063094444446, 44.64084252777778]},"tippecanoe":{"layer":"place","minzoom":7,"maxzoom":9},"properties":{"class":"city","name":"満前"}},
	{"type":"Feature","geometry":{"type": "Point", "coordinates": [147.11598400777777, 44.64245174472222]},"tippecanoe":{"layer":"water_name","minzoom":2,"maxzoom":9},"properties":{"class":"other","name":"ユ"}},
	{"type":"Feature","geometry":{"type": "Point", "coordinates": [147.08460923555555, 44.65583828333333]},"tippecanoe":{"layer":"water_name","minzoom":0,"maxzoom":9},"properties":{"class":"ocean","name":"内保湾"}},
	{"type":"Feature","geometry":{"type": "Point", "coordinates": [147.11732776944444, 44.63927791444444]},"tippecanoe":{"layer":"water_name","minzoom":2,"maxzoom":9},"properties":{"class":"other","name":"ウ"}},
	{"type":"Feature","geometry":{"type": "Point", "coordinates": [147.1191883625, 44.63591955888889]},"tippecanoe":{"layer":"water_name","minzoom":2,"maxzoom":9},"properties":{"class":"other","name":"ガ"}},
	{"type":"Feature","geometry":{"type": "Point", "coordinates": [147.12073885666666, 44.63256120361111]},"tippecanoe":{"layer":"water_name","minzoom":2,"maxzoom":9},"properties":{"class":"other","name":"ウ"}},
	{"type":"Feature","geometry":{"type": "Point", "coordinates": [147.12347806305556, 44.62971951833333]},"tippecanoe":{"layer":"water_name","minzoom":2,"maxzoom":9},"properties":{"class":"other","name":"シ"}},
	{"type":"Feature","geometry":{"type": "Point", "coordinates": [147.14574996472223, 44.559092383333336]},"tippecanoe":{"layer":"water_name","minzoom":0,"maxzoom":9},"properties":{"class":"ocean","name":"ホマッペ崎"}},
	{"type":"Feature","geometry":{"type": "Point", "coordinates": [147.14626237916667, 44.590877051944446]},"tippecanoe":{"layer":"place","minzoom":3,"maxzoom":9},"properties":{"class":"town","name":"六甲山"}},
	{"type":"Feature","geometry":{"type": "Point", "coordinates": [147.12543153972223, 44.607910671111114]},"tippecanoe":{"layer":"place","minzoom":3,"maxzoom":9},"properties":{"class":"town","name":"留別村"}},
	{"type":"Feature","geometry":{"type": "Point", "coordinates": [147.15439658333332, 44.6271005]},"tippecanoe":{"layer":"place","minzoom":3,"maxzoom":9},"properties":{"class":"town","name":"オンアネノボリ山"}},
	{"type":"Feature","geometry":{"type": "Point", "coordinates": [147.12719924916667, 44.62750521805555]},"tippecanoe":{"layer":"water_name","minzoom":2,"maxzoom":9},"properties":{"class":"other","name":"川"}},
	{"type":"Feature","geometry":{"type": "Point", "coordinates": [147.20627257416666, 44.567971209444444]},"tippecanoe":{"layer":"water_name","minzoom":0,"maxzoom":9},"properties":{"class":"ocean","name":"ブッソウ崎"}},
	{"type":"Feature","geometry":{"type": "Point", "coordinates": [147.18998745805555, 44.62404303]},"tippecanoe":{"layer":"water_name","minzoom":2,"maxzoom":9},"properties":{"class":"other","name":"得茂別湖"}},
	{"type":"Feature","geometry":{"type": "Point", "coordinates": [147.19277326944444, 44.63673903666667]},"tippecanoe":{"layer":"place","minzoom":7,"maxzoom":9},"properties":{"class":"city","name":"孵化場"}},
	{"type":"Feature","geometry":{"type": "Point", "coordinates": [147.23737919444446, 44.59597163888889]},"tippecanoe":{"layer":"place","minzoom":7,"maxzoom":9},"properties":{"class":"city","name":"得茂別"}},
	{"type":"Feature","geometry":{"type": "Point", "coordinates": [147.22302854, 44.61175852666667]},"tippecanoe":{"layer":"water_name","minzoom":2,"maxzoom":9},"properties":{"class":"other","name":"得"}},
	{"type":"Feature","geometry":{"type": "Point", "coordinates": [147.22591527972222, 44.608779803888886]},"tippecanoe":{"layer":"water_name","minzoom":2,"maxzoom":9},"properties":{"class":"other","name":"茂"}},
	{"type":"Feature","geometry":{"type": "Point", "coordinates": [147.22682529611112, 44.60500548666667]},"tippecanoe":{"layer":"water_name","minzoom":2,"maxzoom":9},"properties":{"class":"other","name":"別"}},
	{"type":"Feature","geometry":{"type": "Point", "coordinates": [147.23061365583334, 44.60182397777778]},"tippecanoe":{"layer":"water_name","minzoom":2,"maxzoom":9},"properties":{"class":"other","name":"川"}},
	{"type":"Feature","geometry":{"type": "Point", "coordinates": [147.21461205555556, 44.662822222222225]},"tippecanoe":{"layer":"place","minzoom":3,"maxzoom":9},"properties":{"class":"town","name":"クマネシリ山"}},
	{"type":"Feature","geometry":{"type": "Point", "coordinates": [147.25266380555556, 44.60070241416667]},"tippecanoe":{"layer":"water_name","minzoom":0,"maxzoom":9},"properties":{"class":"ocean","name":"得茂別崎"}},
	{"type":"Feature","geometry":{"type": "Point", "coordinates": [147.26956275, 44.60694616666667]},"tippecanoe":{"layer":"place","minzoom":3,"maxzoom":9},"properties":{"class":"village","name":"鳥島"}},
	{"type":"Feature","geometry":{"type": "Point", "coordinates": [146.01786691666666, 44.17670641666667]},"tippecanoe":{"layer":"place","minzoom":7,"maxzoom":9},"properties":{"class":"city","name":"ルヨベツ"}},
	{"type":"Feature","geometry":{"type": "Point", "coordinates": [146.04427561111112, 44.18279533333333]},"tippecanoe":{"layer":"water_name","minzoom":0,"maxzoom":9},"properties":{"class":"ocean","name":"留夜別岬"}},
	{"type":"Feature","geometry":{"type": "Point", "coordinates": [146.05053411555556, 44.18023801277778]},"tippecanoe":{"layer":"place","minzoom":3,"maxzoom":9},"properties":{"class":"village","name":"荒島"}},
	{"type":"Feature","geometry":{"type": "Point", "coordinates": [146.0577255, 44.21933541666667]},"tippecanoe":{"layer":"water_name","minzoom":2,"maxzoom":9},"properties":{"class":"other","name":"クラオイ川"}},
	{"type":"Feature","geometry":{"type": "Point", "coordinates": [146.10345719444445, 44.257363222222224]},"tippecanoe":{"layer":"water_name","minzoom":2,"maxzoom":9},"properties":{"class":"other","name":"セオイ川"}},
	{"type":"Feature","geometry":{"type": "Point", "coordinates": [146.1148747, 44.39716900861111]},"tippecanoe":{"layer":"place","minzoom":3,"maxzoom":9},"properties":{"class":"town","name":"円山"}},
	{"type":"Feature","geometry":{"type": "Point", "coordinates": [146.12633322222223, 44.267048833333334]},"tippecanoe":{"layer":"place","minzoom":7,"maxzoom":9},"properties":{"class":"city","name":"オダイバケ"}},
	{"type":"Feature","geometry":{"type": "Point", "coordinates": [146.15929269444445, 44.26720394444445]},"tippecanoe":{"layer":"water_name","minzoom":2,"maxzoom":9},"properties":{"class":"other","name":"音根別川"}},
	{"type":"Feature","geometry":{"type": "Point", "coordinates": [146.15397882861112, 44.357167073333336]},"tippecanoe":{"layer":"place","minzoom":3,"maxzoom":9},"properties":{"class":"town","name":"留夜別村"}},
	{"type":"Feature","geometry":{"type": "Point", "coordinates": [146.13806042, 44.36875769277778]},"tippecanoe":{"layer":"place","minzoom":3,"maxzoom":9},"properties":{"class":"village","name":"国"}},
	{"type":"Feature","geometry":{"type": "Point", "coordinates": [146.13973691916667, 44.455442113055554]},"tippecanoe":{"layer":"place","minzoom":3,"maxzoom":9},"properties":{"class":"town","name":"ルルイ岳"}},
	{"type":"Feature","geometry":{"type": "Point", "coordinates": [146.1530882275, 44.509164597777776]},"tippecanoe":{"layer":"place","minzoom":7,"maxzoom":9},"properties":{"class":"city","name":"ルルイ"}},
	{"type":"Feature","geometry":{"type": "Point", "coordinates": [146.17291233333333, 44.275503916666665]},"tippecanoe":{"layer":"place","minzoom":7,"maxzoom":9},"properties":{"class":"city","name":"乳呑路"}},
	{"type":"Feature","geometry":{"type": "Point", "coordinates": [146.19443072222222, 44.27000533333333]},"tippecanoe":{"layer":"place","minzoom":7,"maxzoom":9},"properties":{"class":"city","name":"ノツカ"}},
	{"type":"Feature","geometry":{"type": "Point", "coordinates": [146.17567804083333, 44.368889975555554]},"tippecanoe":{"layer":"place","minzoom":3,"maxzoom":9},"properties":{"class":"village","name":"後"}},
	{"type":"Feature","geometry":{"type": "Point", "coordinates": [146.17356095555556, 44.51704841555556]},"tippecanoe":{"layer":"water_name","minzoom":0,"maxzoom":9},"properties":{"class":"ocean","name":"ルルイ岬"}},
	{"type":"Feature","geometry":{"type": "Point", "coordinates": [146.1876656388889, 44.50582513888889]},"tippecanoe":{"layer":"place","minzoom":3,"maxzoom":9},"properties":{"class":"village","name":"蝋燭岩"}},
	{"type":"Feature","geometry":{"type": "Point", "coordinates": [146.21674030555556, 44.27317402777778]},"tippecanoe":{"layer":"place","minzoom":7,"maxzoom":9},"properties":{"class":"city","name":"チフンベツ"}},
	{"type":"Feature","geometry":{"type": "Point", "coordinates": [146.21329566138888, 44.36862541]},"tippecanoe":{"layer":"place","minzoom":3,"maxzoom":9},"properties":{"class":"village","name":"島"}},
	{"type":"Feature","geometry":{"type": "Point", "coordinates": [146.2541698888889, 44.274535416666666]},"tippecanoe":{"layer":"place","minzoom":7,"maxzoom":9},"properties":{"class":"city","name":"礼文磯"}},
	{"type":"Feature","geometry":{"type": "Point", "coordinates": [146.25759971333332, 44.26656438111111]},"tippecanoe":{"layer":"place","minzoom":3,"maxzoom":9},"properties":{"class":"village","name":"礼文岩"}},
	{"type":"Feature","geometry":{"type": "Point", "coordinates": [146.2509829536111, 44.356316721111114]},"tippecanoe":{"layer":"place","minzoom":3,"maxzoom":9},"properties":{"class":"town","name":"爺爺岳"}},
	{"type":"Feature","geometry":{"type": "Point", "coordinates": [146.2780353888889, 44.43339411111111]},"tippecanoe":{"layer":"place","minzoom":7,"maxzoom":9},"properties":{"class":"city","name":"ソコボイ"}},
	{"type":"Feature","geometry":{"type": "Point", "coordinates": [146.27842625, 44.439387305555556]},"tippecanoe":{"layer":"water_name","minzoom":2,"maxzoom":9},"properties":{"class":"other","name":"ソコボイ川"}},
	{"type":"Feature","geometry":{"type": "Point", "coordinates": [146.30811728583333, 44.29162439277778]},"tippecanoe":{"layer":"place","minzoom":7,"maxzoom":9},"properties":{"class":"city","name":"オカップ"}},
	{"type":"Feature","geometry":{"type": "Point", "coordinates": [146.32580135472222, 44.30322789361111]},"tippecanoe":{"layer":"place","minzoom":7,"maxzoom":9},"properties":{"class":"city","name":"賽ノ河原"}},
	{"type":"Feature","geometry":{"type": "Point", "coordinates": [146.32949869444445, 44.41993222222222]},"tippecanoe":{"layer":"place","minzoom":7,"maxzoom":9},"properties":{"class":"city","name":"オンコツ"}},
	{"type":"Feature","geometry":{"type": "Point", "coordinates": [146.40151919444443, 44.35485119444444]},"tippecanoe":{"layer":"water_name","minzoom":0,"maxzoom":9},"properties":{"class":"ocean","name":"白糠湾"}},
	{"type":"Feature","geometry":{"type": "Point", "coordinates": [146.40393446416667, 44.3807825675]},"tippecanoe":{"layer":"water_name","minzoom":2,"maxzoom":9},"properties":{"class":"other","name":"東ビロク湖"}},
	{"type":"Feature","geometry":{"type": "Point", "coordinates": [146.45271575222222, 44.41100799611111]},"tippecanoe":{"layer":"water_name","minzoom":2,"maxzoom":9},"properties":{"class":"other","name":"西ビロク湖"}},
	{"type":"Feature","geometry":{"type": "Point", "coordinates": [146.47706655555555, 44.36510661111111]},"tippecanoe":{"layer":"place","minzoom":7,"maxzoom":9},"properties":{"class":"city","name":"フユシマ"}},
	{"type":"Feature","geometry":{"type": "Point", "coordinates": [146.4619962477778, 44.37693340166667]},"tippecanoe":{"layer":"place","minzoom":7,"maxzoom":9},"properties":{"class":"city","name":"白糠泊"}},
	{"type":"Feature","geometry":{"type": "Point", "coordinates": [146.5388896111111, 44.39885572222222]},"tippecanoe":{"layer":"place","minzoom":7,"maxzoom":9},"properties":{"class":"city","name":"ポンアトイヤ"}},
	{"type":"Feature","geometry":{"type": "Point", "coordinates": [146.56596943583332, 44.448178740277775]},"tippecanoe":{"layer":"place","minzoom":7,"maxzoom":9},"properties":{"class":"city","name":"安渡移矢"}},
	{"type":"Feature","geometry":{"type": "Point", "coordinates": [146.5760400375, 44.45652671305555]},"tippecanoe":{"layer":"water_name","minzoom":0,"maxzoom":9},"properties":{"class":"ocean","name":"安渡移矢岬"}},
	{"type":"Feature","geometry":{"type": "Point", "coordinates": [146.5843314775, 44.459562248888886]},"tippecanoe":{"layer":"place","minzoom":3,"maxzoom":9},"properties":{"class":"village","name":"弁天島"}},
	{"type":"Feature","geometry":{"type": "Point", "coordinates": [146.70223671944444, 44.39417035472222]},"tippecanoe":{"layer":"water_name","minzoom":0,"maxzoom":9},"properties":{"class":"ocean","name":"道"}},
	{"type":"Feature","geometry":{"type": "Point", "coordinates": [146.70223671944444, 44.43044933694444]},"tippecanoe":{"layer":"water_name","minzoom":0,"maxzoom":9},"properties":{"class":"ocean","name":"水"}},
	{"type":"Feature","geometry":{"type": "Point", "coordinates": [146.70265202944444, 44.46613358138889]},"tippecanoe":{"layer":"water_name","minzoom":0,"maxzoom":9},"properties":{"class":"ocean","name":"後"}},
	{"type":"Feature","geometry":{"type": "Point", "coordinates": [146.70265202944444, 44.502709932222224]},"tippecanoe":{"layer":"water_name","minzoom":0,"maxzoom":9},"properties":{"class":"ocean","name":"国"}},
	{"type":"Feature","geometry":{"type": "Point", "coordinates": [146.86181109083333, 44.46701039111111]},"tippecanoe":{"layer":"water_name","minzoom":0,"maxzoom":9},"properties":{"class":"ocean","name":"ベルタルベ崎"}},
	{"type":"Feature","geometry":{"type": "Point", "coordinates": [146.9106561527778, 44.42808908222222]},"tippecanoe":{"layer":"water_name","minzoom":0,"maxzoom":9},"properties":{"class":"ocean","name":"メッカリ崎"}},
	{"type":"Feature","geometry":{"type": "Point", "coordinates": [146.91524661, 44.51123528611111]},"tippecanoe":{"layer":"place","minzoom":3,"maxzoom":9},"properties":{"class":"village","name":"択"}},
	{"type":"Feature","geometry":{"type": "Point", "coordinates": [146.9315406111111, 44.494265694444444]},"tippecanoe":{"layer":"place","minzoom":3,"maxzoom":9},"properties":{"class":"town","name":"留別村"}},
	{"type":"Feature","geometry":{"type": "Point", "coordinates": [146.93192269444444, 44.463158388888885]},"tippecanoe":{"layer":"place","minzoom":3,"maxzoom":9},"properties":{"class":"town","name":"ベルタルベ山"}},
	{"type":"Feature","geometry":{"type": "Point", "coordinates": [146.94033503361112, 44.511532915277776]},"tippecanoe":{"layer":"place","minzoom":3,"maxzoom":9},"properties":{"class":"village","name":"捉"}},
	{"type":"Feature","geometry":{"type": "Point", "coordinates": [146.94231716694443, 44.53852371694445]},"tippecanoe":{"layer":"place","minzoom":7,"maxzoom":9},"properties":{"class":"city","name":"丹根萌"}},
	{"type":"Feature","geometry":{"type": "Point", "coordinates": [146.92680991666666, 44.54317430555555]},"tippecanoe":{"layer":"water_name","minzoom":0,"maxzoom":9},"properties":{"class":"ocean","name":"丹根萌湾"}},
	{"type":"Feature","geometry":{"type": "Point", "coordinates": [146.94873703194443, 44.631617345555554]},"tippecanoe":{"layer":"water_name","minzoom":0,"maxzoom":9},"properties":{"class":"ocean","name":"クンネウエンシリ鼻"}},
	{"type":"Feature","geometry":{"type": "Point", "coordinates": [146.99456676361112, 44.45295995916667]},"tippecanoe":{"layer":"water_name","minzoom":0,"maxzoom":9},"properties":{"class":"ocean","name":"ポンノボリ崎"}},
	{"type":"Feature","geometry":{"type": "Point", "coordinates": [146.96528484694446, 44.51133449583333]},"tippecanoe":{"layer":"place","minzoom":3,"maxzoom":9},"properties":{"class":"village","name":"島"}},
	{"type":"Feature","geometry":{"type": "Point", "coordinates": [146.97332729555555, 44.60645390944445]},"tippecanoe":{"layer":"water_name","minzoom":0,"maxzoom":9},"properties":{"class":"ocean","name":"萌消湾"}},
	{"type":"Feature","geometry":{"type": "Point", "coordinates": [146.97739438555556, 44.65453246444444]},"tippecanoe":{"layer":"place","minzoom":3,"maxzoom":9},"properties":{"class":"village","name":"萌消島"}},
	{"type":"Feature","geometry":{"type": "Point", "coordinates": [147.12322652777777, 44.77463483333333]},"tippecanoe":{"layer":"place","minzoom":3,"maxzoom":9},"properties":{"class":"town","name":"レブンチップトマリ漁場"}},
	{"type":"Feature","geometry":{"type": "Point", "coordinates": [147.09826577777778, 44.81293736111111]},"tippecanoe":{"layer":"water_name","minzoom":0,"maxzoom":9},"properties":{"class":"ocean","name":"ポロノツ鼻"}},
	{"type":"Feature","geometry":{"type": "Point", "coordinates": [147.14919377277778, 44.730388026111115]},"tippecanoe":{"layer":"water_name","minzoom":0,"maxzoom":9},"properties":{"class":"ocean","name":"内保湾"}},
	{"type":"Feature","geometry":{"type": "Point", "coordinates": [147.14329069444443, 44.76745697222222]},"tippecanoe":{"layer":"place","minzoom":3,"maxzoom":9},"properties":{"class":"town","name":"トイビラ漁場"}},
	{"type":"Feature","geometry":{"type": "Point", "coordinates": [147.13087488888888, 44.80904677777778]},"tippecanoe":{"layer":"place","minzoom":3,"maxzoom":9},"properties":{"class":"town","name":"阿登佐岳"}},
	{"type":"Feature","geometry":{"type": "Point", "coordinates": [147.16024529055557, 44.820177073055554]},"tippecanoe":{"layer":"place","minzoom":3,"maxzoom":9},"properties":{"class":"town","name":"ニウスモイ漁場"}},
	{"type":"Feature","geometry":{"type": "Point", "coordinates": [147.18787188888888, 44.69624680555555]},"tippecanoe":{"layer":"place","minzoom":7,"maxzoom":9},"properties":{"class":"city","name":"旧内保"}},
	{"type":"Feature","geometry":{"type": "Point", "coordinates": [147.19656171444444, 44.727941962222225]},"tippecanoe":{"layer":"water_name","minzoom":2,"maxzoom":9},"properties":{"class":"other","name":"内保川"}},
	{"type":"Feature","geometry":{"type": "Point", "coordinates": [147.201777, 44.729548333333334]},"tippecanoe":{"layer":"place","minzoom":7,"maxzoom":9},"properties":{"class":"city","name":"内保"}},
	{"type":"Feature","geometry":{"type": "Point", "coordinates": [147.19098191666666, 44.76635116666667]},"tippecanoe":{"layer":"place","minzoom":7,"maxzoom":9},"properties":{"class":"city","name":"神居古丹"}},
	{"type":"Feature","geometry":{"type": "Point", "coordinates": [147.19181891666668, 44.7985125]},"tippecanoe":{"layer":"place","minzoom":7,"maxzoom":9},"properties":{"class":"city","name":"オタシュツ"}},
	{"type":"Feature","geometry":{"type": "Point", "coordinates": [147.19584805555556, 44.822647277777776]},"tippecanoe":{"layer":"water_name","minzoom":0,"maxzoom":9},"properties":{"class":"ocean","name":"宇多須都湾"}},
	{"type":"Feature","geometry":{"type": "Point", "coordinates": [147.22805979527777, 44.74558289833333]},"tippecanoe":{"layer":"water_name","minzoom":2,"maxzoom":9},"properties":{"class":"other","name":"内保沼"}},
	{"type":"Feature","geometry":{"type": "Point", "coordinates": [147.2417747, 44.734875116944444]},"tippecanoe":{"layer":"water_name","minzoom":2,"maxzoom":9},"properties":{"class":"other","name":"ベンケベツ川"}},
	{"type":"Feature","geometry":{"type": "Point", "coordinates": [147.2230458386111, 44.78848011555556]},"tippecanoe":{"layer":"water_name","minzoom":2,"maxzoom":9},"properties":{"class":"other","name":"キモンマ沼"}},
	{"type":"Feature","geometry":{"type": "Point", "coordinates": [147.24543029833333, 44.769194310555555]},"tippecanoe":{"layer":"water_name","minzoom":2,"maxzoom":9},"properties":{"class":"other","name":"ッ"}},
	{"type":"Feature","geometry":{"type": "Point", "coordinates": [147.24650831333332, 44.766173128333335]},"tippecanoe":{"layer":"water_name","minzoom":2,"maxzoom":9},"properties":{"class":"other","name":"プ"}},
	{"type":"Feature","geometry":{"type": "Point", "coordinates": [147.24724623, 44.76268485055556]},"tippecanoe":{"layer":"water_name","minzoom":2,"maxzoom":9},"properties":{"class":"other","name":"ク"}},
	{"type":"Feature","geometry":{"type": "Point", "coordinates": [147.24818542444444, 44.75933990611111]},"tippecanoe":{"layer":"water_name","minzoom":2,"maxzoom":9},"properties":{"class":"other","name":"川"}},
	{"type":"Feature","geometry":{"type": "Point", "coordinates": [147.244959615, 44.77207671833333]},"tippecanoe":{"layer":"water_name","minzoom":2,"maxzoom":9},"properties":{"class":"other","name":"フ"}},
	{"type":"Feature","geometry":{"type": "Point", "coordinates": [147.2483071388889, 44.81192113888889]},"tippecanoe":{"layer":"place","minzoom":7,"maxzoom":9},"properties":{"class":"city","name":"宇多須都"}},
	{"type":"Feature","geometry":{"type": "Point", "coordinates": [147.25714427416668, 44.756776959722224]},"tippecanoe":{"layer":"water_name","minzoom":2,"maxzoom":9},"properties":{"class":"other","name":"トキテ川"}},
	{"type":"Feature","geometry":{"type": "Point", "coordinates": [147.2601640277778, 44.84857888888889]},"tippecanoe":{"layer":"place","minzoom":3,"maxzoom":9},"properties":{"class":"town","name":"フシコ漁場"}},
	{"type":"Feature","geometry":{"type": "Point", "coordinates": [147.2601640277778, 44.84857888888889]},"tippecanoe":{"layer":"place","minzoom":3,"maxzoom":9},"properties":{"class":"town","name":"フシコ漁場"}},
	{"type":"Feature","geometry":{"type": "Point", "coordinates": [147.28450297694445, 44.878443249444445]},"tippecanoe":{"layer":"water_name","minzoom":0,"maxzoom":9},"properties":{"class":"ocean","name":"トッカリ萌崎"}},
	{"type":"Feature","geometry":{"type": "Point", "coordinates": [147.30481076972222, 44.67440386083333]},"tippecanoe":{"layer":"place","minzoom":7,"maxzoom":9},"properties":{"class":"city","name":"メナトイ"}},
	{"type":"Feature","geometry":{"type": "Point", "coordinates": [147.30069038333335, 44.66834408583333]},"tippecanoe":{"layer":"water_name","minzoom":0,"maxzoom":9},"properties":{"class":"ocean","name":"メナトイ崎"}},
	{"type":"Feature","geometry":{"type": "Point", "coordinates": [147.32120840694444, 44.69020748277778]},"tippecanoe":{"layer":"place","minzoom":7,"maxzoom":9},"properties":{"class":"city","name":"十五夜萌"}},
	{"type":"Feature","geometry":{"type": "Point", "coordinates": [147.29556145333333, 44.66729761777778]},"tippecanoe":{"layer":"place","minzoom":3,"maxzoom":9},"properties":{"class":"village","name":"エンロク泣セ岩"}},
	{"type":"Feature","geometry":{"type": "Point", "coordinates": [147.33085844444443, 44.71106919444444]},"tippecanoe":{"layer":"place","minzoom":7,"maxzoom":9},"properties":{"class":"city","name":"マタルザル"}},
	{"type":"Feature","geometry":{"type": "Point", "coordinates": [147.30251481444444, 44.88203753111111]},"tippecanoe":{"layer":"place","minzoom":3,"maxzoom":9},"properties":{"class":"town","name":"ケンマス漁場"}},
	{"type":"Feature","geometry":{"type": "Point", "coordinates": [147.3318351111111, 44.890304694444445]},"tippecanoe":{"layer":"place","minzoom":3,"maxzoom":9},"properties":{"class":"town","name":"サンヂボツ漁場"}},
	{"type":"Feature","geometry":{"type": "Point", "coordinates": [147.35032872222223, 44.714715444444444]},"tippecanoe":{"layer":"water_name","minzoom":0,"maxzoom":9},"properties":{"class":"ocean","name":"ボキリイソ崎"}},
	{"type":"Feature","geometry":{"type": "Point", "coordinates": [147.35689630555555, 44.72446019444445]},"tippecanoe":{"layer":"place","minzoom":7,"maxzoom":9},"properties":{"class":"city","name":"入里節"}},
	{"type":"Feature","geometry":{"type": "Point", "coordinates": [147.36893628194446, 44.72391992666667]},"tippecanoe":{"layer":"water_name","minzoom":0,"maxzoom":9},"properties":{"class":"ocean","name":"入里節崎"}},
	{"type":"Feature","geometry":{"type": "Point", "coordinates": [147.3443698061111, 44.840926939166664]},"tippecanoe":{"layer":"place","minzoom":3,"maxzoom":9},"properties":{"class":"town","name":"西単冠山"}},
	{"type":"Feature","geometry":{"type": "Point", "coordinates": [147.34842947222222, 44.89710319444445]},"tippecanoe":{"layer":"place","minzoom":3,"maxzoom":9},"properties":{"class":"town","name":"ナカバショ漁場"}},
	{"type":"Feature","geometry":{"type": "Point", "coordinates": [147.37597680555555, 44.73579405555556]},"tippecanoe":{"layer":"water_name","minzoom":2,"maxzoom":9},"properties":{"class":"other","name":"ベウンベツ川"}},
	{"type":"Feature","geometry":{"type": "Point", "coordinates": [147.3989176625, 44.746751464166664]},"tippecanoe":{"layer":"water_name","minzoom":0,"maxzoom":9},"properties":{"class":"ocean","name":"カバリ磯"}},
	{"type":"Feature","geometry":{"type": "Point", "coordinates": [147.41037509666666, 44.755233098333335]},"tippecanoe":{"layer":"water_name","minzoom":0,"maxzoom":9},"properties":{"class":"ocean","name":"トッカリ礁"}},
	{"type":"Feature","geometry":{"type": "Point", "coordinates": [147.394052455, 44.856507505]},"tippecanoe":{"layer":"place","minzoom":3,"maxzoom":9},"properties":{"class":"town","name":"単冠山"}},
	{"type":"Feature","geometry":{"type": "Point", "coordinates": [147.37644976888888, 44.90888391111111]},"tippecanoe":{"layer":"place","minzoom":3,"maxzoom":9},"properties":{"class":"town","name":"ライキモイ漁場"}},
	{"type":"Feature","geometry":{"type": "Point", "coordinates": [147.39160392833332, 44.88472073027778]},"tippecanoe":{"layer":"water_name","minzoom":2,"maxzoom":9},"properties":{"class":"other","name":"白イ川"}},
	{"type":"Feature","geometry":{"type": "Point", "coordinates": [147.4076958888889, 44.93104869444444]},"tippecanoe":{"layer":"place","minzoom":3,"maxzoom":9},"properties":{"class":"town","name":"ポロポロ漁場"}},
	{"type":"Feature","geometry":{"type": "Point", "coordinates": [147.4277385, 44.76782269444445]},"tippecanoe":{"layer":"place","minzoom":7,"maxzoom":9},"properties":{"class":"city","name":"セイノツ"}},
	{"type":"Feature","geometry":{"type": "Point", "coordinates": [147.43823866666668, 44.76924566666667]},"tippecanoe":{"layer":"water_name","minzoom":2,"maxzoom":9},"properties":{"class":"other","name":"白イ川"}},
	{"type":"Feature","geometry":{"type": "Point", "coordinates": [147.449653505, 44.773074601944444]},"tippecanoe":{"layer":"water_name","minzoom":0,"maxzoom":9},"properties":{"class":"ocean","name":"イカサネ崎"}},
	{"type":"Feature","geometry":{"type": "Point", "coordinates": [147.42385447222222, 44.94376391666667]},"tippecanoe":{"layer":"place","minzoom":3,"maxzoom":9},"properties":{"class":"town","name":"オサキナイ漁場"}},
	{"type":"Feature","geometry":{"type": "Point", "coordinates": [147.44399791666666, 44.96027513888889]},"tippecanoe":{"layer":"place","minzoom":3,"maxzoom":9},"properties":{"class":"town","name":"キモンクル漁場"}},
	{"type":"Feature","geometry":{"type": "Point", "coordinates": [147.45083777777776, 44.968575333333334]},"tippecanoe":{"layer":"place","minzoom":3,"maxzoom":9},"properties":{"class":"town","name":"オワタリ漁場"}},
	{"type":"Feature","geometry":{"type": "Point", "coordinates": [147.47895494444444, 44.78190605555555]},"tippecanoe":{"layer":"place","minzoom":7,"maxzoom":9},"properties":{"class":"city","name":"野塚"}},
	{"type":"Feature","geometry":{"type": "Point", "coordinates": [147.48592348055556, 44.780952274166665]},"tippecanoe":{"layer":"water_name","minzoom":0,"maxzoom":9},"properties":{"class":"ocean","name":"野塚崎"}},
	{"type":"Feature","geometry":{"type": "Point", "coordinates": [147.4945566388889, 44.785009861111114]},"tippecanoe":{"layer":"water_name","minzoom":2,"maxzoom":9},"properties":{"class":"other","name":"野塚川"}},
	{"type":"Feature","geometry":{"type": "Point", "coordinates": [147.46014205555556, 44.87792555555556]},"tippecanoe":{"layer":"place","minzoom":3,"maxzoom":9},"properties":{"class":"town","name":"恩根登山"}},
	{"type":"Feature","geometry":{"type": "Point", "coordinates": [147.48804530555554, 44.885700916666664]},"tippecanoe":{"layer":"place","minzoom":3,"maxzoom":9},"properties":{"class":"town","name":"留別村"}},
	{"type":"Feature","geometry":{"type": "Point", "coordinates": [147.4608595, 44.93719591666667]},"tippecanoe":{"layer":"place","minzoom":3,"maxzoom":9},"properties":{"class":"town","name":"丸山"}},
	{"type":"Feature","geometry":{"type": "Point", "coordinates": [147.47766786111112, 44.98653813888889]},"tippecanoe":{"layer":"place","minzoom":3,"maxzoom":9},"properties":{"class":"town","name":"トリカモイ漁場"}},
	{"type":"Feature","geometry":{"type": "Point", "coordinates": [147.4810691527778, 44.98356074722222]},"tippecanoe":{"layer":"water_name","minzoom":2,"maxzoom":9},"properties":{"class":"other","name":"ト"}},
	{"type":"Feature","geometry":{"type": "Point", "coordinates": [147.48375760277779, 44.98156578416667]},"tippecanoe":{"layer":"water_name","minzoom":2,"maxzoom":9},"properties":{"class":"other","name":"リ"}},
	{"type":"Feature","geometry":{"type": "Point", "coordinates": [147.48648678694445, 44.97910822083333]},"tippecanoe":{"layer":"water_name","minzoom":2,"maxzoom":9},"properties":{"class":"other","name":"カ"}},
	{"type":"Feature","geometry":{"type": "Point", "coordinates": [147.48842198333332, 44.976249110833336]},"tippecanoe":{"layer":"water_name","minzoom":2,"maxzoom":9},"properties":{"class":"other","name":"モ"}},
	{"type":"Feature","geometry":{"type": "Point", "coordinates": [147.4900919877778, 44.97358915861111]},"tippecanoe":{"layer":"water_name","minzoom":2,"maxzoom":9},"properties":{"class":"other","name":"イ"}},
	{"type":"Feature","geometry":{"type": "Point", "coordinates": [147.49188216694444, 44.970595325]},"tippecanoe":{"layer":"water_name","minzoom":2,"maxzoom":9},"properties":{"class":"other","name":"川"}},
	{"type":"Feature","geometry":{"type": "Point", "coordinates": [147.46327566194444, 44.96770701333333]},"tippecanoe":{"layer":"water_name","minzoom":2,"maxzoom":9},"properties":{"class":"other","name":"オワタリ川"}},
	{"type":"Feature","geometry":{"type": "Point", "coordinates": [147.51332732611112, 44.81047572388889]},"tippecanoe":{"layer":"water_name","minzoom":2,"maxzoom":9},"properties":{"class":"other","name":"中ノ川"}},
	{"type":"Feature","geometry":{"type": "Point", "coordinates": [147.5299547663889, 44.815650015555555]},"tippecanoe":{"layer":"water_name","minzoom":2,"maxzoom":9},"properties":{"class":"other","name":"具谷川"}},
	{"type":"Feature","geometry":{"type": "Point", "coordinates": [147.51769619444445, 44.99693036111111]},"tippecanoe":{"layer":"place","minzoom":7,"maxzoom":9},"properties":{"class":"city","name":"アルトル"}},
	{"type":"Feature","geometry":{"type": "Point", "coordinates": [147.51989033777778, 44.963471725]},"tippecanoe":{"layer":"place","minzoom":3,"maxzoom":9},"properties":{"class":"village","name":"択"}},
	{"type":"Feature","geometry":{"type": "Point", "coordinates": [147.54323341666668, 44.81725075]},"tippecanoe":{"layer":"place","minzoom":7,"maxzoom":9},"properties":{"class":"city","name":"具谷"}},
	{"type":"Feature","geometry":{"type": "Point", "coordinates": [147.54944090166666, 44.81544605972222]},"tippecanoe":{"layer":"water_name","minzoom":0,"maxzoom":9},"properties":{"class":"ocean","name":"具谷崎"}},
	{"type":"Feature","geometry":{"type": "Point", "coordinates": [147.55345525, 44.821904583333335]},"tippecanoe":{"layer":"place","minzoom":7,"maxzoom":9},"properties":{"class":"city","name":"マトロ"}},
	{"type":"Feature","geometry":{"type": "Point", "coordinates": [147.54554477888888, 44.963471725]},"tippecanoe":{"layer":"place","minzoom":3,"maxzoom":9},"properties":{"class":"village","name":"捉"}},
	{"type":"Feature","geometry":{"type": "Point", "coordinates": [147.57016476666666, 44.963765430833334]},"tippecanoe":{"layer":"place","minzoom":3,"maxzoom":9},"properties":{"class":"village","name":"島"}},
	{"type":"Feature","geometry":{"type": "Point", "coordinates": [147.58384511111112, 44.84506891666667]},"tippecanoe":{"layer":"place","minzoom":7,"maxzoom":9},"properties":{"class":"city","name":"チカッポロ"}},
	{"type":"Feature","geometry":{"type": "Point", "coordinates": [147.60746075111112, 44.87826904861111]},"tippecanoe":{"layer":"place","minzoom":7,"maxzoom":9},"properties":{"class":"city","name":"カンケカラウス"}},
	{"type":"Feature","geometry":{"type": "Point", "coordinates": [147.61425075, 44.883896972222225]},"tippecanoe":{"layer":"water_name","minzoom":2,"maxzoom":9},"properties":{"class":"other","name":"丁寧川"}},
	{"type":"Feature","geometry":{"type": "Point", "coordinates": [147.61778594444445, 44.93614727777778]},"tippecanoe":{"layer":"water_name","minzoom":2,"maxzoom":9},"properties":{"class":"other","name":"恩根別川"}},
	{"type":"Feature","geometry":{"type": "Point", "coordinates": [147.6143626611111, 44.952941343333336]},"tippecanoe":{"layer":"water_name","minzoom":2,"maxzoom":9},"properties":{"class":"other","name":"黒木内川"}},
	{"type":"Feature","geometry":{"type": "Point", "coordinates": [147.6240406111111, 44.92912141666667]},"tippecanoe":{"layer":"place","minzoom":7,"maxzoom":9},"properties":{"class":"city","name":"天寧"}},
	{"type":"Feature","geometry":{"type": "Point", "coordinates": [147.621128065, 44.961720588333336]},"tippecanoe":{"layer":"place","minzoom":3,"maxzoom":9},"properties":{"class":"village","name":"臘虎島"}},
	{"type":"Feature","geometry":{"type": "Point", "coordinates": [147.62588305555556, 44.90115577777778]},"tippecanoe":{"layer":"place","minzoom":7,"maxzoom":9},"properties":{"class":"city","name":"トマカラウス"}},
	{"type":"Feature","geometry":{"type": "Point", "coordinates": [147.63746005555555, 44.92469766666667]},"tippecanoe":{"layer":"place","minzoom":7,"maxzoom":9},"properties":{"class":"city","name":"植別"}},
	{"type":"Feature","geometry":{"type": "Point", "coordinates": [147.65313991666667, 44.92081575]},"tippecanoe":{"layer":"water_name","minzoom":0,"maxzoom":9},"properties":{"class":"ocean","name":"植別岬"}},
	{"type":"Feature","geometry":{"type": "Point", "coordinates": [147.64231694444445, 44.9828445]},"tippecanoe":{"layer":"water_name","minzoom":0,"maxzoom":9},"properties":{"class":"ocean","name":"浜中浜"}},
	{"type":"Feature","geometry":{"type": "Point", "coordinates": [147.67453780555556, 44.96135777777778]},"tippecanoe":{"layer":"water_name","minzoom":0,"maxzoom":9},"properties":{"class":"ocean","name":"単冠湾"}},
	{"type":"Feature","geometry":{"type": "Point", "coordinates": [147.72935066666668, 44.979571666666665]},"tippecanoe":{"layer":"water_name","minzoom":2,"maxzoom":9},"properties":{"class":"other","name":"ヤンケ沼"}},
	{"type":"Feature","geometry":{"type": "Point", "coordinates": [147.73228905555555, 44.99192380555556]},"tippecanoe":{"layer":"place","minzoom":7,"maxzoom":9},"properties":{"class":"city","name":"ヤンケトウ"}},
	{"type":"Feature","geometry":{"type": "Point", "coordinates": [147.74091429111112, 44.977552215]},"tippecanoe":{"layer":"water_name","minzoom":2,"maxzoom":9},"properties":{"class":"other","name":"レ"}},
	{"type":"Feature","geometry":{"type": "Point", "coordinates": [147.74444563333333, 44.97461507277778]},"tippecanoe":{"layer":"water_name","minzoom":2,"maxzoom":9},"properties":{"class":"other","name":"ブ"}},
	{"type":"Feature","geometry":{"type": "Point", "coordinates": [147.7483348338889, 44.971893316944445]},"tippecanoe":{"layer":"water_name","minzoom":2,"maxzoom":9},"properties":{"class":"other","name":"ン"}},
	{"type":"Feature","geometry":{"type": "Point", "coordinates": [147.78401888194443, 44.94649565666667]},"tippecanoe":{"layer":"water_name","minzoom":0,"maxzoom":9},"properties":{"class":"ocean","name":"大山崎"}},
	{"type":"Feature","geometry":{"type": "Point", "coordinates": [147.7650448888889, 44.99868466666667]},"tippecanoe":{"layer":"place","minzoom":3,"maxzoom":9},"properties":{"class":"town","name":"丸山"}},
	{"type":"Feature","geometry":{"type": "Point", "coordinates": [147.76911722222223, 44.98766586111111]},"tippecanoe":{"layer":"water_name","minzoom":2,"maxzoom":9},"properties":{"class":"other","name":"オ"}},
	{"type":"Feature","geometry":{"type": "Point", "coordinates": [147.77436835305556, 44.98591540305556]},"tippecanoe":{"layer":"water_name","minzoom":2,"maxzoom":9},"properties":{"class":"other","name":"ベ"}},
	{"type":"Feature","geometry":{"type": "Point", "coordinates": [147.78015762277778, 44.9870773125]},"tippecanoe":{"layer":"water_name","minzoom":2,"maxzoom":9},"properties":{"class":"other","name":"ボ"}},
	{"type":"Feature","geometry":{"type": "Point", "coordinates": [147.78343236111112, 44.989484125]},"tippecanoe":{"layer":"water_name","minzoom":2,"maxzoom":9},"properties":{"class":"other","name":"ソ"}},
	{"type":"Feature","geometry":{"type": "Point", "coordinates": [147.78764273916667, 44.991766447222226]},"tippecanoe":{"layer":"water_name","minzoom":2,"maxzoom":9},"properties":{"class":"other","name":"川"}},
	{"type":"Feature","geometry":{"type": "Point", "coordinates": [147.7512037427778, 44.969406534722225]},"tippecanoe":{"layer":"water_name","minzoom":2,"maxzoom":9},"properties":{"class":"other","name":"沼"}},
	{"type":"Feature","geometry":{"type": "Point", "coordinates": [147.79564681666668, 44.946641531666664]},"tippecanoe":{"layer":"place","minzoom":3,"maxzoom":9},"properties":{"class":"village","name":"トド島"}},
	{"type":"Feature","geometry":{"type": "Point", "coordinates": [147.83680619444445, 44.99449772222222]},"tippecanoe":{"layer":"place","minzoom":3,"maxzoom":9},"properties":{"class":"town","name":"本登山"}},
	{"type":"Feature","geometry":{"type": "Point", "coordinates": [147.83700954833333, 44.960534967777775]},"tippecanoe":{"layer":"water_name","minzoom":0,"maxzoom":9},"properties":{"class":"ocean","name":"西鞍掛"}},
	{"type":"Feature","geometry":{"type": "Point", "coordinates": [147.85562199833333, 44.963804878611114]},"tippecanoe":{"layer":"water_name","minzoom":0,"maxzoom":9},"properties":{"class":"ocean","name":"東鞍掛"}},
	{"type":"Feature","geometry":{"type": "Point", "coordinates": [147.8943582475, 44.96842107194445]},"tippecanoe":{"layer":"place","minzoom":7,"maxzoom":9},"properties":{"class":"city","name":"程越"}},
	{"type":"Feature","geometry":{"type": "Point", "coordinates": [147.89624612083333, 44.96046040777778]},"tippecanoe":{"layer":"water_name","minzoom":0,"maxzoom":9},"properties":{"class":"ocean","name":"程越岬"}},
	{"type":"Feature","geometry":{"type": "Point", "coordinates": [147.92553413888888, 44.977033222222225]},"tippecanoe":{"layer":"water_name","minzoom":0,"maxzoom":9},"properties":{"class":"ocean","name":"小田萌湾"}},
	{"type":"Feature","geometry":{"type": "Point", "coordinates": [147.49512205388888, 45.111607381944445]},"tippecanoe":{"layer":"water_name","minzoom":0,"maxzoom":9},"properties":{"class":"ocean","name":"野斗路岬"}},
	{"type":"Feature","geometry":{"type": "Point", "coordinates": [147.52224816666666, 45.01513252777778]},"tippecanoe":{"layer":"place","minzoom":7,"maxzoom":9},"properties":{"class":"city","name":"老門"}},
	{"type":"Feature","geometry":{"type": "Point", "coordinates": [147.52458230555555, 45.07204786111111]},"tippecanoe":{"layer":"place","minzoom":3,"maxzoom":9},"properties":{"class":"village","name":"八町岩"}},
	{"type":"Feature","geometry":{"type": "Point", "coordinates": [147.5369295, 45.07260125]},"tippecanoe":{"layer":"place","minzoom":7,"maxzoom":9},"properties":{"class":"city","name":"振別"}},
	{"type":"Feature","geometry":{"type": "Point", "coordinates": [147.50582671083333, 45.1184057975]},"tippecanoe":{"layer":"water_name","minzoom":0,"maxzoom":9},"properties":{"class":"ocean","name":"珊湖崎"}},
	{"type":"Feature","geometry":{"type": "Point", "coordinates": [147.52033138888888, 45.11319397222222]},"tippecanoe":{"layer":"place","minzoom":3,"maxzoom":9},"properties":{"class":"village","name":"トド島"}},
	{"type":"Feature","geometry":{"type": "Point", "coordinates": [147.53003769444445, 45.08902397222222]},"tippecanoe":{"layer":"place","minzoom":3,"maxzoom":9},"properties":{"class":"town","name":"コタンケシモイ漁場"}},
	{"type":"Feature","geometry":{"type": "Point", "coordinates": [147.5667328686111, 45.00878630333333]},"tippecanoe":{"layer":"water_name","minzoom":2,"maxzoom":9},"properties":{"class":"other","name":"老門川"}},
	{"type":"Feature","geometry":{"type": "Point", "coordinates": [147.55821755555556, 45.107148]},"tippecanoe":{"layer":"place","minzoom":3,"maxzoom":9},"properties":{"class":"town","name":"カシコシモイ漁場"}},
	{"type":"Feature","geometry":{"type": "Point", "coordinates": [147.57082969027778, 45.095642125]},"tippecanoe":{"layer":"place","minzoom":3,"maxzoom":9},"properties":{"class":"town","name":"戸渡漁場"}},
	{"type":"Feature","geometry":{"type": "Point", "coordinates": [147.57366294194443, 45.100035829444444]},"tippecanoe":{"layer":"water_name","minzoom":0,"maxzoom":9},"properties":{"class":"ocean","name":"戸渡崎"}},
	{"type":"Feature","geometry":{"type": "Point", "coordinates": [147.62403119444446, 45.11012011111111]},"tippecanoe":{"layer":"water_name","minzoom":0,"maxzoom":9},"properties":{"class":"ocean","name":"留別湾"}},
	{"type":"Feature","geometry":{"type": "Point", "coordinates": [147.64433950611112, 45.03720648638889]},"tippecanoe":{"layer":"water_name","minzoom":2,"maxzoom":9},"properties":{"class":"other","name":"ラウス川"}},
	{"type":"Feature","geometry":{"type": "Point", "coordinates": [147.62855648722223, 45.077074026666665]},"tippecanoe":{"layer":"place","minzoom":3,"maxzoom":9},"properties":{"class":"town","name":"ルイビラ漁場"}},
	{"type":"Feature","geometry":{"type": "Point", "coordinates": [147.6616417661111, 45.068832479444445]},"tippecanoe":{"layer":"water_name","minzoom":2,"maxzoom":9},"properties":{"class":"other","name":"ラウス沼"}},
	{"type":"Feature","geometry":{"type": "Point", "coordinates": [147.65974803, 45.08409271916667]},"tippecanoe":{"layer":"place","minzoom":3,"maxzoom":9},"properties":{"class":"village","name":"弁天島"}},
	{"type":"Feature","geometry":{"type": "Point", "coordinates": [147.66425047222222, 45.08462125]},"tippecanoe":{"layer":"place","minzoom":3,"maxzoom":9},"properties":{"class":"town","name":"ラウス漁場"}},
	{"type":"Feature","geometry":{"type": "Point", "coordinates": [147.70790600527778, 45.00570937166667]},"tippecanoe":{"layer":"water_name","minzoom":2,"maxzoom":9},"properties":{"class":"other","name":"年萌川"}},
	{"type":"Feature","geometry":{"type": "Point", "coordinates": [147.70014777777777, 45.077706444444445]},"tippecanoe":{"layer":"water_name","minzoom":2,"maxzoom":9},"properties":{"class":"other","name":"留別沼"}},
	{"type":"Feature","geometry":{"type": "Point", "coordinates": [147.68824419444445, 45.10428433333333]},"tippecanoe":{"layer":"place","minzoom":3,"maxzoom":9},"properties":{"class":"village","name":"留別港"}},
	{"type":"Feature","geometry":{"type": "Point", "coordinates": [147.70354820944445, 45.11186119333333]},"tippecanoe":{"layer":"place","minzoom":7,"maxzoom":9},"properties":{"class":"city","name":"内保"}},
	{"type":"Feature","geometry":{"type": "Point", "coordinates": [147.70451274916667, 45.16757939944444]},"tippecanoe":{"layer":"water_name","minzoom":0,"maxzoom":9},"properties":{"class":"ocean","name":"シリムクリ崎"}},
	{"type":"Feature","geometry":{"type": "Point", "coordinates": [147.71591505555554, 45.03381713888889]},"tippecanoe":{"layer":"water_name","minzoom":2,"maxzoom":9},"properties":{"class":"other","name":"年萌湖"}},
	{"type":"Feature","geometry":{"type": "Point", "coordinates": [147.72667619444445, 45.00465636111111]},"tippecanoe":{"layer":"place","minzoom":7,"maxzoom":9},"properties":{"class":"city","name":"年萌"}},
	{"type":"Feature","geometry":{"type": "Point", "coordinates": [147.7252406461111, 45.01374373527778]},"tippecanoe":{"layer":"water_name","minzoom":2,"maxzoom":9},"properties":{"class":"other","name":"キモン沼"}},
	{"type":"Feature","geometry":{"type": "Point", "coordinates": [147.73157644444444, 45.03826863888889]},"tippecanoe":{"layer":"place","minzoom":7,"maxzoom":9},"properties":{"class":"city","name":"瀬石"}},
	{"type":"Feature","geometry":{"type": "Point", "coordinates": [147.71260149222223, 45.1098279775]},"tippecanoe":{"layer":"water_name","minzoom":2,"maxzoom":9},"properties":{"class":"other","name":"内保川"}},
	{"type":"Feature","geometry":{"type": "Point", "coordinates": [147.76860725, 45.03602172222222]},"tippecanoe":{"layer":"water_name","minzoom":2,"maxzoom":9},"properties":{"class":"other","name":"ヨ"}},
	{"type":"Feature","geometry":{"type": "Point", "coordinates": [147.77181116666668, 45.034145]},"tippecanoe":{"layer":"water_name","minzoom":2,"maxzoom":9},"properties":{"class":"other","name":"コ"}},
	{"type":"Feature","geometry":{"type": "Point", "coordinates": [147.77684052055557, 45.03244273666667]},"tippecanoe":{"layer":"water_name","minzoom":2,"maxzoom":9},"properties":{"class":"other","name":"シ"}},
	{"type":"Feature","geometry":{"type": "Point", "coordinates": [147.7820417552778, 45.03033808722222]},"tippecanoe":{"layer":"water_name","minzoom":2,"maxzoom":9},"properties":{"class":"other","name":"ベ"}},
	{"type":"Feature","geometry":{"type": "Point", "coordinates": [147.78617058583333, 45.02744976166667]},"tippecanoe":{"layer":"water_name","minzoom":2,"maxzoom":9},"properties":{"class":"other","name":"ツ"}},
	{"type":"Feature","geometry":{"type": "Point", "coordinates": [147.79112617444446, 45.025557765833334]},"tippecanoe":{"layer":"water_name","minzoom":2,"maxzoom":9},"properties":{"class":"other","name":"川"}},
	{"type":"Feature","geometry":{"type": "Point", "coordinates": [147.75628533333332, 45.04296844444445]},"tippecanoe":{"layer":"place","minzoom":7,"maxzoom":9},"properties":{"class":"city","name":"瀬石温泉"}},
	{"type":"Feature","geometry":{"type": "Point", "coordinates": [147.7786140438889, 45.047507851666666]},"tippecanoe":{"layer":"water_name","minzoom":2,"maxzoom":9},"properties":{"class":"other","name":"瀬石川"}},
	{"type":"Feature","geometry":{"type": "Point", "coordinates": [147.7797867222222, 45.08600880555556]},"tippecanoe":{"layer":"place","minzoom":3,"maxzoom":9},"properties":{"class":"town","name":"孵化場"}},
	{"type":"Feature","geometry":{"type": "Point", "coordinates": [147.76681278416666, 45.161823883888886]},"tippecanoe":{"layer":"place","minzoom":3,"maxzoom":9},"properties":{"class":"town","name":"登山"}},
	{"type":"Feature","geometry":{"type": "Point", "coordinates": [147.78730305555555, 45.16160963888889]},"tippecanoe":{"layer":"place","minzoom":3,"maxzoom":9},"properties":{"class":"village","name":"大曲"}},
	{"type":"Feature","geometry":{"type": "Point", "coordinates": [147.76432847222222, 45.196046527777774]},"tippecanoe":{"layer":"place","minzoom":3,"maxzoom":9},"properties":{"class":"town","name":"オサウス漁場"}},
	{"type":"Feature","geometry":{"type": "Point", "coordinates": [147.79306312666668, 45.09604152694445]},"tippecanoe":{"layer":"water_name","minzoom":2,"maxzoom":9},"properties":{"class":"other","name":"留別川"}},
	{"type":"Feature","geometry":{"type": "Point", "coordinates": [147.8132489922222, 45.13257068916667]},"tippecanoe":{"layer":"place","minzoom":3,"maxzoom":9},"properties":{"class":"village","name":"尖岩"}},
	{"type":"Feature","geometry":{"type": "Point", "coordinates": [147.793644, 45.18544438888889]},"tippecanoe":{"layer":"place","minzoom":3,"maxzoom":9},"properties":{"class":"town","name":"小登山"}},
	{"type":"Feature","geometry":{"type": "Point", "coordinates": [147.81333525, 45.21722855555556]},"tippecanoe":{"layer":"place","minzoom":3,"maxzoom":9},"properties":{"class":"town","name":"ニシウス漁場"}},
	{"type":"Feature","geometry":{"type": "Point", "coordinates": [147.87206787777777, 45.01255143]},"tippecanoe":{"layer":"place","minzoom":3,"maxzoom":9},"properties":{"class":"town","name":"焼山"}},
	{"type":"Feature","geometry":{"type": "Point", "coordinates": [147.84640833333333, 45.120743583333336]},"tippecanoe":{"layer":"place","minzoom":3,"maxzoom":9},"properties":{"class":"town","name":"大山"}},
	{"type":"Feature","geometry":{"type": "Point", "coordinates": [147.85518067583334, 45.18547309527778]},"tippecanoe":{"layer":"water_name","minzoom":2,"maxzoom":9},"properties":{"class":"other","name":"有萌川"}},
	{"type":"Feature","geometry":{"type": "Point", "coordinates": [147.84467197222222, 45.20744411111111]},"tippecanoe":{"layer":"place","minzoom":7,"maxzoom":9},"properties":{"class":"city","name":"有萌"}},
	{"type":"Feature","geometry":{"type": "Point", "coordinates": [147.85495469444444, 45.225608055555554]},"tippecanoe":{"layer":"place","minzoom":3,"maxzoom":9},"properties":{"class":"village","name":"紗那港"}},
	{"type":"Feature","geometry":{"type": "Point", "coordinates": [147.8725986175, 45.25983237916667]},"tippecanoe":{"layer":"water_name","minzoom":0,"maxzoom":9},"properties":{"class":"ocean","name":"ナヨカ湾"}},
	{"type":"Feature","geometry":{"type": "Point", "coordinates": [147.86237452777777, 45.315406527777775]},"tippecanoe":{"layer":"place","minzoom":7,"maxzoom":9},"properties":{"class":"city","name":"トウマイ"}},
	{"type":"Feature","geometry":{"type": "Point", "coordinates": [147.8731448888889, 45.29515461111111]},"tippecanoe":{"layer":"place","minzoom":7,"maxzoom":9},"properties":{"class":"city","name":"ヤンケトウ"}},
	{"type":"Feature","geometry":{"type": "Point", "coordinates": [147.8874351788889, 45.02069902555556]},"tippecanoe":{"layer":"place","minzoom":3,"maxzoom":9},"properties":{"class":"town","name":"烏帽子山"}},
	{"type":"Feature","geometry":{"type": "Point", "coordinates": [147.91605457611112, 45.02952868777778]},"tippecanoe":{"layer":"place","minzoom":3,"maxzoom":9},"properties":{"class":"town","name":"小田萌山"}},
	{"type":"Feature","geometry":{"type": "Point", "coordinates": [147.90662016666667, 45.0752445]},"tippecanoe":{"layer":"place","minzoom":3,"maxzoom":9},"properties":{"class":"town","name":"摺鉢山"}},
	{"type":"Feature","geometry":{"type": "Point", "coordinates": [147.89717044444444, 45.20384802777778]},"tippecanoe":{"layer":"water_name","minzoom":2,"maxzoom":9},"properties":{"class":"other","name":"振別川"}},
	{"type":"Feature","geometry":{"type": "Point", "coordinates": [147.89315659333334, 45.17916187777778]},"tippecanoe":{"layer":"place","minzoom":3,"maxzoom":9},"properties":{"class":"town","name":"紗那村"}},
	{"type":"Feature","geometry":{"type": "Point", "coordinates": [147.87791125, 45.212906333333336]},"tippecanoe":{"layer":"water_name","minzoom":2,"maxzoom":9},"properties":{"class":"other","name":"ポン川"}},
	{"type":"Feature","geometry":{"type": "Point", "coordinates": [147.89474962944445, 45.23236722861111]},"tippecanoe":{"layer":"water_name","minzoom":2,"maxzoom":9},"properties":{"class":"other","name":"紗那沼"}},
	{"type":"Feature","geometry":{"type": "Point", "coordinates": [147.90355227777778, 45.21698913888889]},"tippecanoe":{"layer":"place","minzoom":3,"maxzoom":9},"properties":{"class":"town","name":"孵化場"}},
	{"type":"Feature","geometry":{"type": "Point", "coordinates": [147.8871496388889, 45.256324222222226]},"tippecanoe":{"layer":"place","minzoom":7,"maxzoom":9},"properties":{"class":"city","name":"ナヨカ"}},
	{"type":"Feature","geometry":{"type": "Point", "coordinates": [147.8976175327778, 45.26329466805556]},"tippecanoe":{"layer":"water_name","minzoom":2,"maxzoom":9},"properties":{"class":"other","name":"ナヨカ川"}},
	{"type":"Feature","geometry":{"type": "Point", "coordinates": [147.95723009611112, 45.07203039861111]},"tippecanoe":{"layer":"place","minzoom":3,"maxzoom":9},"properties":{"class":"town","name":"円山"}},
	{"type":"Feature","geometry":{"type": "Point", "coordinates": [147.94893308333334, 45.15508436111111]},"tippecanoe":{"layer":"place","minzoom":3,"maxzoom":9},"properties":{"class":"town","name":"三角山"}},
	{"type":"Feature","geometry":{"type": "Point", "coordinates": [147.93387792583334, 45.198092997222226]},"tippecanoe":{"layer":"water_name","minzoom":2,"maxzoom":9},"properties":{"class":"other","name":"紗那川"}},
	{"type":"Feature","geometry":{"type": "Point", "coordinates": [147.9282690277778, 45.30335019444444]},"tippecanoe":{"layer":"place","minzoom":3,"maxzoom":9},"properties":{"class":"village","name":"散布山側"}},
	{"type":"Feature","geometry":{"type": "Point", "coordinates": [147.97775292805557, 45.27749814472222]},"tippecanoe":{"layer":"water_name","minzoom":2,"maxzoom":9},"properties":{"class":"other","name":"オーヨ川"}},
	{"type":"Feature","geometry":{"type": "Point", "coordinates": [145.655360775, 44.00474136166667]},"tippecanoe":{"layer":"water_name","minzoom":0,"maxzoom":9},"properties":{"class":"ocean","name":"ブニ崎"}},
	{"type":"Feature","geometry":{"type": "Point", "coordinates": [145.6607591111111, 44.00496775]},"tippecanoe":{"layer":"place","minzoom":7,"maxzoom":9},"properties":{"class":"city","name":"ブニ"}},
	{"type":"Feature","geometry":{"type": "Point", "coordinates": [145.67484143944444, 44.02408054138889]},"tippecanoe":{"layer":"place","minzoom":3,"maxzoom":9},"properties":{"class":"village","name":"材木岩"}},
	{"type":"Feature","geometry":{"type": "Point", "coordinates": [145.67865827777777, 44.01178838888889]},"tippecanoe":{"layer":"place","minzoom":7,"maxzoom":9},"properties":{"class":"city","name":"島登"}},
	{"type":"Feature","geometry":{"type": "Point", "coordinates": [145.74014802777776, 44.012886055555555]},"tippecanoe":{"layer":"water_name","minzoom":2,"maxzoom":9},"properties":{"class":"other","name":"精進川"}},
	{"type":"Feature","geometry":{"type": "Point", "coordinates": [145.71555449916667, 44.03498806611111]},"tippecanoe":{"layer":"place","minzoom":7,"maxzoom":9},"properties":{"class":"city","name":"ヤイタイコタン"}},
	{"type":"Feature","geometry":{"type": "Point", "coordinates": [145.74319399833334, 44.07674908472222]},"tippecanoe":{"layer":"place","minzoom":3,"maxzoom":9},"properties":{"class":"village","name":"天狗岩"}},
	{"type":"Feature","geometry":{"type": "Point", "coordinates": [145.74512252888888, 44.053130529166665]},"tippecanoe":{"layer":"place","minzoom":7,"maxzoom":9},"properties":{"class":"city","name":"シブチャリ"}},
	{"type":"Feature","geometry":{"type": "Point", "coordinates": [145.77246544444444, 44.02808397222222]},"tippecanoe":{"layer":"place","minzoom":3,"maxzoom":9},"properties":{"class":"town","name":"円山"}},
	{"type":"Feature","geometry":{"type": "Point", "coordinates": [145.7594721511111, 44.07114989833333]},"tippecanoe":{"layer":"water_name","minzoom":2,"maxzoom":9},"properties":{"class":"other","name":"ニキショロ湖"}},
	{"type":"Feature","geometry":{"type": "Point", "coordinates": [145.77767074833332, 44.13501712916667]},"tippecanoe":{"layer":"place","minzoom":3,"maxzoom":9},"properties":{"class":"town","name":"ポンベツ漁場"}},
	{"type":"Feature","geometry":{"type": "Point", "coordinates": [145.82463094444444, 44.020649472222225]},"tippecanoe":{"layer":"water_name","minzoom":0,"maxzoom":9},"properties":{"class":"ocean","name":"古釜布湾"}},
	{"type":"Feature","geometry":{"type": "Point", "coordinates": [145.8144658025, 44.054647617777775]},"tippecanoe":{"layer":"water_name","minzoom":2,"maxzoom":9},"properties":{"class":"other","name":"古釜布沼"}},
	{"type":"Feature","geometry":{"type": "Point", "coordinates": [145.8035579786111, 44.06101035222222]},"tippecanoe":{"layer":"place","minzoom":3,"maxzoom":9},"properties":{"class":"town","name":"泊村"}},
	{"type":"Feature","geometry":{"type": "Point", "coordinates": [145.80756212833333, 44.161027105]},"tippecanoe":{"layer":"place","minzoom":3,"maxzoom":9},"properties":{"class":"town","name":"ヤンベツ漁場"}},
	{"type":"Feature","geometry":{"type": "Point", "coordinates": [145.83714383333333, 44.034481472222225]},"tippecanoe":{"layer":"place","minzoom":7,"maxzoom":9},"properties":{"class":"city","name":"イソヤンベツ"}},
	{"type":"Feature","geometry":{"type": "Point", "coordinates": [145.84725700972223, 44.02928476333334]},"tippecanoe":{"layer":"place","minzoom":7,"maxzoom":9},"properties":{"class":"city","name":"古釜布"}},
	{"type":"Feature","geometry":{"type": "Point", "coordinates": [145.86131136111112, 44.02595788888889]},"tippecanoe":{"layer":"place","minzoom":7,"maxzoom":9},"properties":{"class":"city","name":"沖ノ古丹"}},
	{"type":"Feature","geometry":{"type": "Point", "coordinates": [145.87414252777776, 44.07557002777778]},"tippecanoe":{"layer":"place","minzoom":7,"maxzoom":9},"properties":{"class":"city","name":"近布内"}},
	{"type":"Feature","geometry":{"type": "Point", "coordinates": [145.86211056805556, 44.09902841277778]},"tippecanoe":{"layer":"place","minzoom":3,"maxzoom":9},"properties":{"class":"village","name":"島"}},
	{"type":"Feature","geometry":{"type": "Point", "coordinates": [145.86235553444445, 44.13466744916666]},"tippecanoe":{"layer":"place","minzoom":3,"maxzoom":9},"properties":{"class":"village","name":"後"}},
	{"type":"Feature","geometry":{"type": "Point", "coordinates": [145.8382383611111, 44.181558583333334]},"tippecanoe":{"layer":"place","minzoom":7,"maxzoom":9},"properties":{"class":"city","name":"ヨコマ"}},
	{"type":"Feature","geometry":{"type": "Point", "coordinates": [145.8570416111111, 44.206158333333335]},"tippecanoe":{"layer":"place","minzoom":7,"maxzoom":9},"properties":{"class":"city","name":"トショロ"}},
	{"type":"Feature","geometry":{"type": "Point", "coordinates": [145.86211056805556, 44.17101220888889]},"tippecanoe":{"layer":"place","minzoom":3,"maxzoom":9},"properties":{"class":"village","name":"国"}},
	{"type":"Feature","geometry":{"type": "Point", "coordinates": [145.87748076277776, 44.021034264166666]},"tippecanoe":{"layer":"water_name","minzoom":0,"maxzoom":9},"properties":{"class":"ocean","name":"大岬"}},
	{"type":"Feature","geometry":{"type": "Point", "coordinates": [145.87700713583334, 44.07088026305556]},"tippecanoe":{"layer":"place","minzoom":3,"maxzoom":9},"properties":{"class":"village","name":"蝋燭岩"}},
	{"type":"Feature","geometry":{"type": "Point", "coordinates": [145.88674693444443, 44.09821971111111]},"tippecanoe":{"layer":"place","minzoom":7,"maxzoom":9},"properties":{"class":"city","name":"キナカイ"}},
	{"type":"Feature","geometry":{"type": "Point", "coordinates": [145.89874423472222, 44.124049014166665]},"tippecanoe":{"layer":"place","minzoom":7,"maxzoom":9},"properties":{"class":"city","name":"植古丹"}},
	{"type":"Feature","geometry":{"type": "Point", "coordinates": [145.90154388888888, 44.09373713888889]},"tippecanoe":{"layer":"water_name","minzoom":0,"maxzoom":9},"properties":{"class":"ocean","name":"キナカイ崎"}},
	{"type":"Feature","geometry":{"type": "Point", "coordinates": [145.88606855555557, 44.191137777777776]},"tippecanoe":{"layer":"place","minzoom":3,"maxzoom":9},"properties":{"class":"town","name":"留夜別村"}},
	{"type":"Feature","geometry":{"type": "Point", "coordinates": [145.89879793361112, 44.22091491305556]},"tippecanoe":{"layer":"place","minzoom":3,"maxzoom":9},"properties":{"class":"town","name":"エビカラウス山"}},
	{"type":"Feature","geometry":{"type": "Point", "coordinates": [145.91830480555555, 44.13492588888889]},"tippecanoe":{"layer":"place","minzoom":7,"maxzoom":9},"properties":{"class":"city","name":"オキツウス"}},
	{"type":"Feature","geometry":{"type": "Point", "coordinates": [145.93320331527778, 44.147397188333336]},"tippecanoe":{"layer":"place","minzoom":7,"maxzoom":9},"properties":{"class":"city","name":"チタルベウス"}},
	{"type":"Feature","geometry":{"type": "Point", "coordinates": [145.93931485694443, 44.15126951166667]},"tippecanoe":{"layer":"place","minzoom":7,"maxzoom":9},"properties":{"class":"city","name":"チクニ"}},
	{"type":"Feature","geometry":{"type": "Point", "coordinates": [145.94299766666666, 44.14997019444444]},"tippecanoe":{"layer":"water_name","minzoom":2,"maxzoom":9},"properties":{"class":"other","name":"チクニ川"}},
	{"type":"Feature","geometry":{"type": "Point", "coordinates": [145.95683969444445, 44.156570611111114]},"tippecanoe":{"layer":"place","minzoom":7,"maxzoom":9},"properties":{"class":"city","name":"植内"}},
	{"type":"Feature","geometry":{"type": "Point", "coordinates": [145.95483319444443, 44.210136222222225]},"tippecanoe":{"layer":"place","minzoom":3,"maxzoom":9},"properties":{"class":"town","name":"摺鉢山"}},
	{"type":"Feature","geometry":{"type": "Point", "coordinates": [145.95041827277777, 44.27198949277778]},"tippecanoe":{"layer":"water_name","minzoom":2,"maxzoom":9},"properties":{"class":"other","name":"オンネ湖"}},
	{"type":"Feature","geometry":{"type": "Point", "coordinates": [145.9609464725, 44.155465209166664]},"tippecanoe":{"layer":"place","minzoom":7,"maxzoom":9},"properties":{"class":"city","name":"コンブモリ"}},
	{"type":"Feature","geometry":{"type": "Point", "coordinates": [145.96249924666665, 44.16127678777778]},"tippecanoe":{"layer":"place","minzoom":7,"maxzoom":9},"properties":{"class":"city","name":"オボロセ"}},
	{"type":"Feature","geometry":{"type": "Point", "coordinates": [145.9851742961111, 44.17516527111111]},"tippecanoe":{"layer":"place","minzoom":7,"maxzoom":9},"properties":{"class":"city","name":"セセキ"}},
	{"type":"Feature","geometry":{"type": "Point", "coordinates": [145.96430650416667, 44.21827482416667]},"tippecanoe":{"layer":"water_name","minzoom":2,"maxzoom":9},"properties":{"class":"other","name":"留"}},
	{"type":"Feature","geometry":{"type": "Point", "coordinates": [145.9699961088889, 44.21827482416667]},"tippecanoe":{"layer":"water_name","minzoom":2,"maxzoom":9},"properties":{"class":"other","name":"夜"}},
	{"type":"Feature","geometry":{"type": "Point", "coordinates": [145.9741955788889, 44.21566850666667]},"tippecanoe":{"layer":"water_name","minzoom":2,"maxzoom":9},"properties":{"class":"other","name":"別"}},
	{"type":"Feature","geometry":{"type": "Point", "coordinates": [145.9763630475, 44.212282729444446]},"tippecanoe":{"layer":"water_name","minzoom":2,"maxzoom":9},"properties":{"class":"other","name":"川"}},
	{"type":"Feature","geometry":{"type": "Point", "coordinates": [145.99705537305556, 44.255441812777775]},"tippecanoe":{"layer":"place","minzoom":3,"maxzoom":9},"properties":{"class":"town","name":"横山"}},
	{"type":"Feature","geometry":{"type": "Point", "coordinates": [145.9748727777778, 44.29920691666667]},"tippecanoe":{"layer":"water_name","minzoom":2,"maxzoom":9},"properties":{"class":"other","name":"ポン湖"}},
	{"type":"Feature","geometry":{"type": "Point", "coordinates": [145.9802496111111, 44.30720505861111]},"tippecanoe":{"layer":"place","minzoom":7,"maxzoom":9},"properties":{"class":"city","name":"中ノ沢"}},
	{"type":"Feature","geometry":{"type": "Point", "coordinates": [146.03307627722222, 43.36843036083334]},"tippecanoe":{"layer":"place","minzoom":3,"maxzoom":9},"properties":{"class":"village","name":"秋勇留島"}},
	{"type":"Feature","geometry":{"type": "Point", "coordinates": [146.01858119833332, 43.3934364775]},"tippecanoe":{"layer":"water_name","minzoom":0,"maxzoom":9},"properties":{"class":"ocean","name":"勇留水道"}},
	{"type":"Feature","geometry":{"type": "Point", "coordinates": [146.02245713888888, 43.37767069444445]},"tippecanoe":{"layer":"water_name","minzoom":0,"maxzoom":9},"properties":{"class":"ocean","name":"モシリ崎"}},
	{"type":"Feature","geometry":{"type": "Point", "coordinates": [146.03548097222222, 43.416183555555556]},"tippecanoe":{"layer":"place","minzoom":7,"maxzoom":9},"properties":{"class":"city","name":"砂浜"}},
	{"type":"Feature","geometry":{"type": "Point", "coordinates": [146.0281431875, 43.420112968611114]},"tippecanoe":{"layer":"water_name","minzoom":0,"maxzoom":9},"properties":{"class":"ocean","name":"ウタノボリ崎"}},
	{"type":"Feature","geometry":{"type": "Point", "coordinates": [146.05634320527778, 43.40963160166667]},"tippecanoe":{"layer":"place","minzoom":3,"maxzoom":9},"properties":{"class":"village","name":"勇留島"}},
	{"type":"Feature","geometry":{"type": "Point", "coordinates": [146.07990319444446, 43.41210077777778]},"tippecanoe":{"layer":"water_name","minzoom":0,"maxzoom":9},"properties":{"class":"ocean","name":"アサキリナイ崎"}},
	{"type":"Feature","geometry":{"type": "Point", "coordinates": [146.04733163027777, 43.43181756805556]},"tippecanoe":{"layer":"water_name","minzoom":0,"maxzoom":9},"properties":{"class":"ocean","name":"トミトマリ崎"}},
	{"type":"Feature","geometry":{"type": "Point", "coordinates": [146.06311730333334, 43.43389980638889]},"tippecanoe":{"layer":"water_name","minzoom":0,"maxzoom":9},"properties":{"class":"ocean","name":"トコマ崎"}},
	{"type":"Feature","geometry":{"type": "Point", "coordinates": [146.07030579166667, 43.4201334725]},"tippecanoe":{"layer":"place","minzoom":7,"maxzoom":9},"properties":{"class":"city","name":"税庫前"}},
	{"type":"Feature","geometry":{"type": "Point", "coordinates": [146.06175945166666, 43.46819142166667]},"tippecanoe":{"layer":"water_name","minzoom":0,"maxzoom":9},"properties":{"class":"ocean","name":"志"}},
	{"type":"Feature","geometry":{"type": "Point", "coordinates": [146.0582670277778, 43.522850416666664]},"tippecanoe":{"layer":"water_name","minzoom":0,"maxzoom":9},"properties":{"class":"ocean","name":"相泊崎"}},
	{"type":"Feature","geometry":{"type": "Point", "coordinates": [146.06801183333334, 43.52432388888889]},"tippecanoe":{"layer":"place","minzoom":7,"maxzoom":9},"properties":{"class":"city","name":"相泊"}},
	{"type":"Feature","geometry":{"type": "Point", "coordinates": [146.08741615472223, 43.43225238888889]},"tippecanoe":{"layer":"place","minzoom":7,"maxzoom":9},"properties":{"class":"city","name":"ポントロモイ"}},
	{"type":"Feature","geometry":{"type": "Point", "coordinates": [146.09951340583333, 43.4482038175]},"tippecanoe":{"layer":"water_name","minzoom":0,"maxzoom":9},"properties":{"class":"ocean","name":"チベリウシ崎"}},
	{"type":"Feature","geometry":{"type": "Point", "coordinates": [146.11110648583335, 43.45039749722222]},"tippecanoe":{"layer":"water_name","minzoom":0,"maxzoom":9},"properties":{"class":"ocean","name":"水"}},
	{"type":"Feature","geometry":{"type": "Point", "coordinates": [146.10651605305554, 43.49090812888889]},"tippecanoe":{"layer":"place","minzoom":7,"maxzoom":9},"properties":{"class":"city","name":"西前"}},
	{"type":"Feature","geometry":{"type": "Point", "coordinates": [146.0866760575, 43.45916166888889]},"tippecanoe":{"layer":"water_name","minzoom":0,"maxzoom":9},"properties":{"class":"ocean","name":"発"}},
	{"type":"Feature","geometry":{"type": "Point", "coordinates": [146.09765680555554, 43.501146694444444]},"tippecanoe":{"layer":"place","minzoom":7,"maxzoom":9},"properties":{"class":"city","name":"西浦泊"}},
	{"type":"Feature","geometry":{"type": "Point", "coordinates": [146.10279819444443, 43.53553247222222]},"tippecanoe":{"layer":"place","minzoom":7,"maxzoom":9},"properties":{"class":"city","name":"北浦"}},
	{"type":"Feature","geometry":{"type": "Point", "coordinates": [146.12063611861112, 43.50703018527778]},"tippecanoe":{"layer":"place","minzoom":3,"maxzoom":9},"properties":{"class":"village","name":"志発島"}},
	{"type":"Feature","geometry":{"type": "Point", "coordinates": [146.16662652777777, 43.417582055555556]},"tippecanoe":{"layer":"place","minzoom":3,"maxzoom":9},"properties":{"class":"village","name":"ハルカリモシリ島"}},
	{"type":"Feature","geometry":{"type": "Point", "coordinates": [146.1359015475, 43.4412792175]},"tippecanoe":{"layer":"water_name","minzoom":0,"maxzoom":9},"properties":{"class":"ocean","name":"道"}},
	{"type":"Feature","geometry":{"type": "Point", "coordinates": [146.14664155833333, 43.47051138888889]},"tippecanoe":{"layer":"place","minzoom":7,"maxzoom":9},"properties":{"class":"city","name":"アナマ"}},
	{"type":"Feature","geometry":{"type": "Point", "coordinates": [146.14858716666666, 43.54103075]},"tippecanoe":{"layer":"place","minzoom":7,"maxzoom":9},"properties":{"class":"city","name":"トッカリイソ"}},
	{"type":"Feature","geometry":{"type": "Point", "coordinates": [146.13466483666667, 43.549306343611114]},"tippecanoe":{"layer":"water_name","minzoom":0,"maxzoom":9},"properties":{"class":"ocean","name":"トッカリ崎"}},
	{"type":"Feature","geometry":{"type": "Point", "coordinates": [146.17802903722222, 43.38346626333333]},"tippecanoe":{"layer":"place","minzoom":3,"maxzoom":9},"properties":{"class":"village","name":"歯"}},
	{"type":"Feature","geometry":{"type": "Point", "coordinates": [146.19640805555557, 43.495055444444446]},"tippecanoe":{"layer":"water_name","minzoom":0,"maxzoom":9},"properties":{"class":"ocean","name":"シラリウス崎"}},
	{"type":"Feature","geometry":{"type": "Point", "coordinates": [146.1847397513889, 43.515593906666666]},"tippecanoe":{"layer":"place","minzoom":7,"maxzoom":9},"properties":{"class":"city","name":"ウエンベツ"}},
	{"type":"Feature","geometry":{"type": "Point", "coordinates": [146.1918438475, 43.530567445]},"tippecanoe":{"layer":"place","minzoom":7,"maxzoom":9},"properties":{"class":"city","name":"カフエノツ"}},
	{"type":"Feature","geometry":{"type": "Point", "coordinates": [146.20478320444445, 43.533086608611114]},"tippecanoe":{"layer":"water_name","minzoom":0,"maxzoom":9},"properties":{"class":"ocean","name":"三角崎"}},
	{"type":"Feature","geometry":{"type": "Point", "coordinates": [146.1738253538889, 43.584358430555554]},"tippecanoe":{"layer":"water_name","minzoom":0,"maxzoom":9},"properties":{"class":"ocean","name":"多"}},
	{"type":"Feature","geometry":{"type": "Point", "coordinates": [146.2231420636111, 43.56702960277778]},"tippecanoe":{"layer":"water_name","minzoom":0,"maxzoom":9},"properties":{"class":"ocean","name":"楽"}},
	{"type":"Feature","geometry":{"type": "Point", "coordinates": [146.21919006638888, 43.595218323888886]},"tippecanoe":{"layer":"place","minzoom":3,"maxzoom":9},"properties":{"class":"town","name":"根室市"}},
	{"type":"Feature","geometry":{"type": "Point", "coordinates": [146.25225622444444, 43.43729321722222]},"tippecanoe":{"layer":"place","minzoom":3,"maxzoom":9},"properties":{"class":"village","name":"舞"}},
	{"type":"Feature","geometry":{"type": "Point", "coordinates": [146.27286974583333, 43.548804456388886]},"tippecanoe":{"layer":"water_name","minzoom":0,"maxzoom":9},"properties":{"class":"ocean","name":"水"}},
	{"type":"Feature","geometry":{"type": "Point", "coordinates": [146.29038872222222, 43.62321144444444]},"tippecanoe":{"layer":"place","minzoom":7,"maxzoom":9},"properties":{"class":"city","name":"南蒲原磯"}},
	{"type":"Feature","geometry":{"type": "Point", "coordinates": [146.2786566388889, 43.628665777777776]},"tippecanoe":{"layer":"place","minzoom":7,"maxzoom":9},"properties":{"class":"city","name":"北蒲原磯"}},
	{"type":"Feature","geometry":{"type": "Point", "coordinates": [146.32685353138888, 43.491595529166666]},"tippecanoe":{"layer":"place","minzoom":3,"maxzoom":9},"properties":{"class":"village","name":"群"}},
	{"type":"Feature","geometry":{"type": "Point", "coordinates": [146.32177548305555, 43.53117685555556]},"tippecanoe":{"layer":"water_name","minzoom":0,"maxzoom":9},"properties":{"class":"ocean","name":"道"}},
	{"type":"Feature","geometry":{"type": "Point", "coordinates": [146.32645791666667, 43.623688694444446]},"tippecanoe":{"layer":"place","minzoom":7,"maxzoom":9},"properties":{"class":"city","name":"古別"}},
	{"type":"Feature","geometry":{"type": "Point", "coordinates": [146.31206881083332, 43.65184720916667]},"tippecanoe":{"layer":"water_name","minzoom":0,"maxzoom":9},"properties":{"class":"ocean","name":"リヤウシ崎"}},
	{"type":"Feature","geometry":{"type": "Point", "coordinates": [146.3107701111111, 43.641278972222224]},"tippecanoe":{"layer":"place","minzoom":7,"maxzoom":9},"properties":{"class":"city","name":"多楽石"}},
	{"type":"Feature","geometry":{"type": "Point", "coordinates": [146.31093123666668, 43.63189631583333]},"tippecanoe":{"layer":"place","minzoom":3,"maxzoom":9},"properties":{"class":"village","name":"多楽島"}},
	{"type":"Feature","geometry":{"type": "Point", "coordinates": [146.32165983694443, 43.65877237888889]},"tippecanoe":{"layer":"place","minzoom":3,"maxzoom":9},"properties":{"class":"village","name":"弁天島"}},
	{"type":"Feature","geometry":{"type": "Point", "coordinates": [146.35380694777777, 43.62356723972222]},"tippecanoe":{"layer":"place","minzoom":7,"maxzoom":9},"properties":{"class":"city","name":"税庫前"}},
	{"type":"Feature","geometry":{"type": "Point", "coordinates": [146.36751204416666, 43.616957335555554]},"tippecanoe":{"layer":"place","minzoom":3,"maxzoom":9},"properties":{"class":"village","name":"カブ島"}},
	{"type":"Feature","geometry":{"type": "Point", "coordinates": [146.33564822083332, 43.63441619]},"tippecanoe":{"layer":"place","minzoom":7,"maxzoom":9},"properties":{"class":"city","name":"釜前"}},
	{"type":"Feature","geometry":{"type": "Point", "coordinates": [146.3496432913889, 43.62989634527778]},"tippecanoe":{"layer":"place","minzoom":7,"maxzoom":9},"properties":{"class":"city","name":"温根泊"}},
	{"type":"Feature","geometry":{"type": "Point", "coordinates": [146.4062193611111, 43.566808333333334]},"tippecanoe":{"layer":"place","minzoom":3,"maxzoom":9},"properties":{"class":"village","name":"海馬島"}},
	{"type":"Feature","geometry":{"type": "Point", "coordinates": [146.40068491916668, 43.54518373916667]},"tippecanoe":{"layer":"place","minzoom":3,"maxzoom":9},"properties":{"class":"village","name":"島"}},
	{"type":"Feature","geometry":{"type": "Point", "coordinates": [146.43590583333332, 43.573124972222224]},"tippecanoe":{"layer":"place","minzoom":3,"maxzoom":9},"properties":{"class":"village","name":"カブト島"}},
	{"type":"Feature","geometry":{"type": "Point", "coordinates": [146.43316744722222, 43.60000416111111]},"tippecanoe":{"layer":"place","minzoom":3,"maxzoom":9},"properties":{"class":"village","name":"カナクソ岩"}},
	{"type":"Feature","geometry":{"type": "Point", "coordinates": [146.49589625055555, 43.692898383333336]},"tippecanoe":{"layer":"water_name","minzoom":0,"maxzoom":9},"properties":{"class":"ocean","name":"丹"}},
	{"type":"Feature","geometry":{"type": "Point", "coordinates": [146.47174429694445, 43.72928161222222]},"tippecanoe":{"layer":"water_name","minzoom":0,"maxzoom":9},"properties":{"class":"ocean","name":"色"}},
	{"type":"Feature","geometry":{"type": "Point", "coordinates": [146.52151195916667, 43.657046296666664]},"tippecanoe":{"layer":"water_name","minzoom":0,"maxzoom":9},"properties":{"class":"ocean","name":"水"}},
	{"type":"Feature","geometry":{"type": "Point", "coordinates": [146.54602985166667, 43.62092863888889]},"tippecanoe":{"layer":"water_name","minzoom":0,"maxzoom":9},"properties":{"class":"ocean","name":"道"}},
	{"type":"Feature","geometry":{"type": "Point", "coordinates": [146.60586072222222, 43.74788286111111]},"tippecanoe":{"layer":"place","minzoom":7,"maxzoom":9},"properties":{"class":"city","name":"ノトロ"}},
	{"type":"Feature","geometry":{"type": "Point", "coordinates": [146.62357466666666, 43.73479313888889]},"tippecanoe":{"layer":"place","minzoom":7,"maxzoom":9},"properties":{"class":"city","name":"ポンデバリ"}},
	{"type":"Feature","geometry":{"type": "Point", "coordinates": [146.58717992194445, 43.74281547583333]},"tippecanoe":{"layer":"water_name","minzoom":0,"maxzoom":9},"properties":{"class":"ocean","name":"ハマナスワン崎"}},
	{"type":"Feature","geometry":{"type": "Point", "coordinates": [146.60854013777777, 43.76766509666667]},"tippecanoe":{"layer":"place","minzoom":7,"maxzoom":9},"properties":{"class":"city","name":"マスバ"}},
	{"type":"Feature","geometry":{"type": "Point", "coordinates": [146.58472781305557, 43.806464913333336]},"tippecanoe":{"layer":"water_name","minzoom":0,"maxzoom":9},"properties":{"class":"ocean","name":"大崎"}},
	{"type":"Feature","geometry":{"type": "Point", "coordinates": [146.64335115861113, 43.700974119166666]},"tippecanoe":{"layer":"water_name","minzoom":0,"maxzoom":9},"properties":{"class":"ocean","name":"コンブウス崎"}},
	{"type":"Feature","geometry":{"type": "Point", "coordinates": [146.63039847222223, 43.72796047222222]},"tippecanoe":{"layer":"place","minzoom":7,"maxzoom":9},"properties":{"class":"city","name":"デバリ"}},
	{"type":"Feature","geometry":{"type": "Point", "coordinates": [146.6425816725, 43.71715860888889]},"tippecanoe":{"layer":"place","minzoom":7,"maxzoom":9},"properties":{"class":"city","name":"コンブウス"}},
	{"type":"Feature","geometry":{"type": "Point", "coordinates": [146.68215265583333, 43.733135437777776]},"tippecanoe":{"layer":"place","minzoom":7,"maxzoom":9},"properties":{"class":"city","name":"キリトウシ"}},
	{"type":"Feature","geometry":{"type": "Point", "coordinates": [146.70065708222222, 43.74489622]},"tippecanoe":{"layer":"water_name","minzoom":0,"maxzoom":9},"properties":{"class":"ocean","name":"松ヶ浜湾"}},
	{"type":"Feature","geometry":{"type": "Point", "coordinates": [146.69544529222222, 43.72781502]},"tippecanoe":{"layer":"place","minzoom":3,"maxzoom":9},"properties":{"class":"village","name":"小島"}},
	{"type":"Feature","geometry":{"type": "Point", "coordinates": [146.69169622222222, 43.7774255]},"tippecanoe":{"layer":"place","minzoom":3,"maxzoom":9},"properties":{"class":"town","name":"ノトロ山"}},
	{"type":"Feature","geometry":{"type": "Point", "coordinates": [146.66791459944446, 43.77068350333333]},"tippecanoe":{"layer":"water_name","minzoom":2,"maxzoom":9},"properties":{"class":"other","name":"ノトロ川"}},
	{"type":"Feature","geometry":{"type": "Point", "coordinates": [146.7034791525, 43.83549729666667]},"tippecanoe":{"layer":"water_name","minzoom":0,"maxzoom":9},"properties":{"class":"ocean","name":"穴澗湾"}},
	{"type":"Feature","geometry":{"type": "Point", "coordinates": [146.71224136027777, 43.731888508611114]},"tippecanoe":{"layer":"place","minzoom":3,"maxzoom":9},"properties":{"class":"village","name":"鴨島"}},
	{"type":"Feature","geometry":{"type": "Point", "coordinates": [146.73285816666666, 43.76929211111111]},"tippecanoe":{"layer":"place","minzoom":3,"maxzoom":9},"properties":{"class":"town","name":"泊山"}},
	{"type":"Feature","geometry":{"type": "Point", "coordinates": [146.71243636111112, 43.822883555555556]},"tippecanoe":{"layer":"place","minzoom":7,"maxzoom":9},"properties":{"class":"city","name":"ホロベツ"}},
	{"type":"Feature","geometry":{"type": "Point", "coordinates": [146.70975129694443, 43.80779402722222]},"tippecanoe":{"layer":"place","minzoom":3,"maxzoom":9},"properties":{"class":"village","name":"色"}},
	{"type":"Feature","geometry":{"type": "Point", "coordinates": [146.73446066694444, 43.8081135525]},"tippecanoe":{"layer":"place","minzoom":3,"maxzoom":9},"properties":{"class":"village","name":"丹"}},
	{"type":"Feature","geometry":{"type": "Point", "coordinates": [146.76992833111112, 43.76863954638889]},"tippecanoe":{"layer":"place","minzoom":7,"maxzoom":9},"properties":{"class":"city","name":"ケッキョワン"}},
	{"type":"Feature","geometry":{"type": "Point", "coordinates": [146.7879886111111, 43.76350244444444]},"tippecanoe":{"layer":"place","minzoom":7,"maxzoom":9},"properties":{"class":"city","name":"ヨコネモシリ"}},
	{"type":"Feature","geometry":{"type": "Point", "coordinates": [146.75420898083334, 43.82761804888889]},"tippecanoe":{"layer":"place","minzoom":7,"maxzoom":9},"properties":{"class":"city","name":"アナマ"}},
	{"type":"Feature","geometry":{"type": "Point", "coordinates": [146.75123971583332, 43.79869523833333]},"tippecanoe":{"layer":"place","minzoom":3,"maxzoom":9},"properties":{"class":"town","name":"色丹村"}},
	{"type":"Feature","geometry":{"type": "Point", "coordinates": [146.75946419583335, 43.80800704388889]},"tippecanoe":{"layer":"place","minzoom":3,"maxzoom":9},"properties":{"class":"village","name":"島"}},
	{"type":"Feature","geometry":{"type": "Point", "coordinates": [146.75885997416665, 43.85588009638889]},"tippecanoe":{"layer":"place","minzoom":3,"maxzoom":9},"properties":{"class":"town","name":"又古丹山"}},
	{"type":"Feature","geometry":{"type": "Point", "coordinates": [146.77604904666666, 43.87678010305556]},"tippecanoe":{"layer":"water_name","minzoom":0,"maxzoom":9},"properties":{"class":"ocean","name":"軍艦崎"}},
	{"type":"Feature","geometry":{"type": "Point", "coordinates": [146.8015125277778, 43.78850988888889]},"tippecanoe":{"layer":"place","minzoom":7,"maxzoom":9},"properties":{"class":"city","name":"サキムイ"}},
	{"type":"Feature","geometry":{"type": "Point", "coordinates": [146.80601827777778, 43.751416444444445]},"tippecanoe":{"layer":"place","minzoom":3,"maxzoom":9},"properties":{"class":"village","name":"大島"}},
	{"type":"Feature","geometry":{"type": "Point", "coordinates": [146.82456786111112, 43.79714227777778]},"tippecanoe":{"layer":"place","minzoom":7,"maxzoom":9},"properties":{"class":"city","name":"イネモシリ"}},
	{"type":"Feature","geometry":{"type": "Point", "coordinates": [146.7947635, 43.86062144444445]},"tippecanoe":{"layer":"place","minzoom":7,"maxzoom":9},"properties":{"class":"city","name":"マタコタン"}},
	{"type":"Feature","geometry":{"type": "Point", "coordinates": [146.81719991666668, 43.873076194444444]},"tippecanoe":{"layer":"place","minzoom":3,"maxzoom":9},"properties":{"class":"village","name":"斜古丹港"}},
	{"type":"Feature","geometry":{"type": "Point", "coordinates": [146.82825194444445, 43.86953344444444]},"tippecanoe":{"layer":"place","minzoom":7,"maxzoom":9},"properties":{"class":"city","name":"斜古丹"}},
	{"type":"Feature","geometry":{"type": "Point", "coordinates": [146.8252851111111, 43.89049955555556]},"tippecanoe":{"layer":"water_name","minzoom":0,"maxzoom":9},"properties":{"class":"ocean","name":"ヒセロフ崎"}},
	{"type":"Feature","geometry":{"type": "Point", "coordinates": [146.85258853555555, 43.79117642888889]},"tippecanoe":{"layer":"place","minzoom":3,"maxzoom":9},"properties":{"class":"village","name":"ゴメ島"}},
	{"type":"Feature","geometry":{"type": "Point", "coordinates": [146.84330272138888, 43.80008896138889]},"tippecanoe":{"layer":"place","minzoom":3,"maxzoom":9},"properties":{"class":"village","name":"鴨島"}},
	{"type":"Feature","geometry":{"type": "Point", "coordinates": [146.8571268611111, 43.87119608333333]},"tippecanoe":{"layer":"place","minzoom":3,"maxzoom":9},"properties":{"class":"town","name":"斜古丹山"}},
	{"type":"Feature","geometry":{"type": "Point", "coordinates": [146.84299518111112, 43.88950165333333]},"tippecanoe":{"layer":"water_name","minzoom":0,"maxzoom":9},"properties":{"class":"ocean","name":"斜古丹岬"}},
	{"type":"Feature","geometry":{"type": "Point", "coordinates": [146.88171634861112, 43.81805599916667]},